id,name,neighbourhood_cleansed,room_type_simple,accommodates,bedrooms,bathrooms,price_clean,price_category,latitude,longitude,review_scores_rating,number_of_reviews,host_is_superhost,minimum_nights,capacity_type
869689049669594794,"Million-dollar view, Ipanema",Ipanema,Casa/Apto Inteiro,4,2.0,2.0,1200.0,Médio-Alto,-22.9854206,-43.199622,4.9,59,,2,Médio (3-4)
1447068922388954055,Casa localizada no Condomínio,Recreio dos Bandeirantes,Casa/Apto Inteiro,2,5.0,6.0,932.0,Médio,-23.0267,-43.49175,0.0,0,f,1,Pequeno (1-2)
1361728846412032602,"Coração do Leblon | Cristo Redentor, Lagoa e Metrô",Leblon,Casa/Apto Inteiro,4,1.0,1.0,358.0,Médio-Baixo,-22.984238729410663,-43.21667014933124,4.95,20,t,2,Médio (3-4)
19272350,Alugo para o rock in rio,Jacarepaguá,Casa/Apto Inteiro,5,2.0,1.0,1002.0,Médio,-22.96915,-43.39636,0.0,0,f,1,Grande (5+)
595438638069068260,NEW Apartment in the Heart of Rio de Janeiro Lapa,Centro,Casa/Apto Inteiro,4,1.0,1.0,250.0,Baixo,-22.912706,-43.17765,4.93,55,f,1,Médio (3-4)
985529939492500995,MC Flats Leblon Inn Apartamento 406,Leblon,Casa/Apto Inteiro,3,1.0,1.0,671.0,Médio,-22.986949582622675,-43.228004451378574,4.57,7,f,1,Médio (3-4)
1150779601864528041,Copacabana beach view | Nsc1006,Copacabana,Casa/Apto Inteiro,2,1.0,1.0,385.0,Médio-Baixo,-22.96459,-43.1764,4.85,13,f,1,Pequeno (1-2)
954934123040371255,Av Atlântica -  3 Bedroom Beach Apartment - Leme,Leme,Casa/Apto Inteiro,7,3.0,2.5,510.0,Médio-Baixo,-22.9625398,-43.1685096,4.79,38,t,2,Grande (5+)
1237296657579110905,Quarto com Vista para Cristo,Cosme Velho,Quarto Privado,2,1.0,2.0,144.0,Baixo,-22.94155909860268,-43.19745271899587,0.0,0,f,1,Pequeno (1-2)
542686413295234941,TIR16 #805 - Maravilhoso Flat Vista Frontal Mar,Copacabana,Casa/Apto Inteiro,4,1.0,1.0,454.0,Médio-Baixo,-22.9781096,-43.1893096,4.93,191,t,1,Médio (3-4)
1329279120591784043,Casa de Luxo Sala de Cinema e Piscina,Vila Valqueire,Casa/Apto Inteiro,16,4.0,5.0,1021.0,Médio,-22.89452562631124,-43.3660081346903,5.0,2,,1,Grande (5+)
1299950805183465510,Lindo Studio/apt em Copacabana,Copacabana,Casa/Apto Inteiro,2,1.0,1.0,169.0,Baixo,-22.98127451218492,-43.19514960050583,4.92,12,t,2,Pequeno (1-2)
1242259157617445686,Quarto  Copacabana- Posto 5,Copacabana,Quarto Privado,2,1.0,1.0,167.0,Baixo,-22.98520178490789,-43.19155108830532,5.0,14,t,3,Pequeno (1-2)
4511149,3 bedrooms 50 mt from beach,Copacabana,Casa/Apto Inteiro,8,3.0,2.0,656.0,Médio,-22.97825,-43.19067,4.7,10,f,4,Grande (5+)
2701966,Apartamento de luxo,Copacabana,Casa/Apto Inteiro,6,3.0,3.0,2000.0,Alto,-22.97567,-43.18925,0.0,0,f,10,Grande (5+)
2007641,Studio na Lapa - prático e charmoso,Santa Teresa,Casa/Apto Inteiro,2,1.0,1.0,89.0,Muito Baixo,-22.91814,-43.18511,4.82,11,f,4,Pequeno (1-2)
1219674298248430668,Leblon 2-Bedrooms 450 m from the Beach,Leblon,Casa/Apto Inteiro,4,2.0,2.0,650.0,Médio,-22.983239533039725,-43.22153451534424,5.0,21,f,1,Médio (3-4)
658594284819371994,Ipanema apartment next to the beach.,Ipanema,Casa/Apto Inteiro,2,1.0,1.5,413.0,Médio-Baixo,-22.9856706,-43.2111621,4.86,64,t,3,Pequeno (1-2)
974837939009680348,Cantinho Aconchegante II Copa/RJ,Copacabana,Quarto Privado,2,1.0,2.0,135.0,Muito Baixo,-22.97191190986291,-43.188535754581466,4.78,9,f,1,Pequeno (1-2)
1242858745795838842,Pousada da tt,Recreio dos Bandeirantes,Quarto Privado,1,1.0,1.5,188.0,Baixo,-23.027257414798303,-43.48752058708387,0.0,0,f,1,Pequeno (1-2)
1250170580346442993,Vaga Quarto Carnaval,Estácio,Quarto Privado,2,1.0,1.0,625.0,Médio,-22.9143338,-43.1993813,0.0,0,f,1,Pequeno (1-2)
53145194,"Kitnet em Copacabana (Posto 5) , pertinho do Mar",Copacabana,Casa/Apto Inteiro,2,1.0,1.0,200.0,Baixo,-22.98011,-43.18991,4.61,119,f,2,Pequeno (1-2)
1316924195944978772,Copacabana: Quarto com banheiro exclusivo,Copacabana,Quarto Privado,2,1.0,1.0,612.0,Médio,-22.96711812257908,-43.18724663787707,3.0,2,f,3,Pequeno (1-2)
1034789844716743114,terraço/loft/ copacabana,Copacabana,Casa/Apto Inteiro,2,1.0,1.0,270.0,Baixo,-22.9653079,-43.1773716,4.78,9,f,3,Pequeno (1-2)
13847498,"Apartament in condominium club, good standard",Recreio dos Bandeirantes,Casa/Apto Inteiro,7,3.0,1.0,,,-23.01091,-43.45432,0.0,0,f,15,Grande (5+)
53050029,Flat com serviços 300 m da praia de Ipanema  I302,Ipanema,Casa/Apto Inteiro,3,1.0,1.0,448.0,Médio-Baixo,-22.985607,-43.193718,4.6,40,f,2,Médio (3-4)
1292034881895526154,Refúgio Boêmio em Copacabana,Copacabana,Casa/Apto Inteiro,2,1.0,1.0,1200.0,Médio-Alto,-22.96459,-43.17604,0.0,0,f,4,Pequeno (1-2)
666568134234783685,Quarto 11 Para 2 Pessoas - Perto do Aeroporto GIG,Jardim Guanabara,Quarto Privado,2,0.0,1.0,249.0,Baixo,-22.80644,-43.20959,4.94,48,t,1,Pequeno (1-2)
1366757151921733091,Valentina Hostel.,Recreio dos Bandeirantes,Casa/Apto Inteiro,4,1.0,1.0,473.0,Médio-Baixo,-23.0296721,-43.4728424,0.0,0,f,2,Médio (3-4)
1315989434042479280,Apt Ipanema,Ipanema,Casa/Apto Inteiro,3,0.0,1.0,420.0,Médio-Baixo,-22.98549,-43.19464,4.67,3,f,2,Médio (3-4)
705605739022856143,Apartamento praia de Botafogo,Botafogo,Casa/Apto Inteiro,2,0.0,1.0,140.0,Muito Baixo,-22.9463983,-43.1830906,4.35,20,t,2,Pequeno (1-2)
1351604477434066505,Suíte com banheira no Hotel Nacional RJ,Vidigal,Quarto Privado,3,1.0,1.0,,,-22.99897191812064,-43.24004237327063,0.0,0,f,1,Médio (3-4)
1374068209391605651,Ipanema room @posto 9,Ipanema,Quarto Privado,2,0.0,1.0,600.0,Médio,-22.98556850603613,-43.19959597773016,0.0,0,f,1,Pequeno (1-2)
1303777028190207822,Luxuoso Apartamento 3 quartos na Praia do Leme,Leme,Casa/Apto Inteiro,5,3.0,2.0,360.0,Médio-Baixo,-22.96337,-43.16789,4.73,15,,2,Grande (5+)
1371309905376286457,Hospedagem Esquina da Praia II,Recreio dos Bandeirantes,Casa/Apto Inteiro,2,1.0,1.0,259.0,Baixo,-23.0299487,-43.4726455,0.0,0,f,1,Pequeno (1-2)
1385661132134044929,Bem localizado do Méier,Méier,Quarto Privado,2,1.0,1.0,104.0,Muito Baixo,-22.904625517963677,-43.27801586694631,5.0,2,f,2,Pequeno (1-2)
545007,House in the middle of nature,Cosme Velho,Casa/Apto Inteiro,3,1.0,1.0,270.0,Baixo,-22.94428,-43.20513,4.75,81,f,5,Médio (3-4)
1045611701259257714,Alugo por temporada de 10 dias 1000 reais o dia!,Copacabana,Casa/Apto Inteiro,6,2.0,2.0,1028.0,Médio,-22.979247138738906,-43.19132405491168,0.0,0,f,1,Grande (5+)
38542736,"Art and Design, condo fechado área nobre RJ",Barra da Tijuca,Casa/Apto Inteiro,16,5.0,5.5,2158.0,Alto,-22.99517,-43.41441,4.86,70,t,2,Grande (5+)
1426936853112104146,Dois qts com Piscina &  Garagem,Ipanema,Casa/Apto Inteiro,4,2.0,2.0,819.0,Médio,-22.9858,-43.19469,0.0,0,f,5,Médio (3-4)
960137446280428545,Casa maravilhosa Jardim Botânico,Jardim Botânico,Casa/Apto Inteiro,2,1.0,1.5,170.0,Baixo,-22.9650381,-43.2190628,4.8,44,t,2,Pequeno (1-2)
949945471154960707,Aconchego em Santa Teresa,Santa Teresa,Quarto Privado,2,1.0,1.0,120.0,Muito Baixo,-22.9202772,-43.1853667,5.0,4,f,1,Pequeno (1-2)
41963149,Frente praia e calçadão de Copacabana,Copacabana,Quarto Privado,5,1.0,1.0,298.0,Baixo,-22.97153,-43.18711,4.83,48,t,2,Grande (5+)
575371727802758646,Studio Praia de Botafogo,Botafogo,Casa/Apto Inteiro,2,0.0,1.0,300.0,Baixo,-22.94673,-43.18189,4.81,21,f,3,Pequeno (1-2)
17718549,Quiet place near Copacabana beach,Copacabana,Casa/Apto Inteiro,4,1.0,1.0,,,-22.96753,-43.18279,4.96,49,f,5,Médio (3-4)
1361631387960705742,Refúgio no coração do Leme,Leme,Casa/Apto Inteiro,3,1.0,1.0,292.0,Baixo,-22.964266931096294,-43.17161297773868,0.0,0,f,2,Médio (3-4)
37687692,Cobertura Frente Mar no Rio de Janeiro.,Recreio dos Bandeirantes,Casa/Apto Inteiro,7,3.0,2.5,3005.0,Alto,-23.03128,-43.48024,5.0,6,t,2,Grande (5+)
1359560079590234823,Cobertura Charme Ipanema Posto 9,Ipanema,Casa/Apto Inteiro,2,1.0,1.0,1496.0,Médio-Alto,-22.98353,-43.20342,5.0,5,f,1,Pequeno (1-2)
674553186873022939,Ateliê Quase na Lua,Centro,Casa/Apto Inteiro,4,0.0,1.0,128.0,Muito Baixo,-22.90793,-43.17692,4.8,157,,3,Médio (3-4)
1307242150999872652,"Espaço confortável e equipado, com acesso à praia!",Barra da Tijuca,Casa/Apto Inteiro,4,2.0,2.0,285.0,Baixo,-23.0084875,-43.4277048,5.0,3,f,2,Médio (3-4)
1386468330440823968,Lindo Apê na quadra Praia de Ipanema,Ipanema,Casa/Apto Inteiro,4,2.0,1.5,628.0,Médio,-22.98548,-43.20875,5.0,1,f,2,Médio (3-4)
1055787279379100887,Copanema Quiet Room. Charming!,Copacabana,Quarto Privado,2,1.0,1.0,220.0,Baixo,-22.982176284277152,-43.19298913729611,5.0,1,t,1,Pequeno (1-2)
1430012024752403615,Triplex vista mar Vidigal,Vidigal,Casa/Apto Inteiro,2,1.0,1.0,143.0,Baixo,-22.995056640136287,-43.23346624946225,5.0,2,f,1,Pequeno (1-2)
1232215151978636872,Quarto vista  frontal Mar.,Copacabana,Quarto Privado,2,0.0,2.0,440.0,Médio-Baixo,-22.98535352908773,-43.19061920483894,4.67,12,f,3,Pequeno (1-2)
771880491030371068,Excelente localização Copacabana RJ - Posto 5,Copacabana,Casa/Apto Inteiro,6,1.0,1.5,215.0,Baixo,-22.9769294,-43.1914102,4.62,63,t,2,Grande (5+)
41792466,Flat RioStay 01 quarto com cozinha 04,Camorim,Quarto Privado,2,1.0,1.0,333.0,Médio-Baixo,-22.97446,-43.41512,4.82,11,f,2,Pequeno (1-2)
1232831432727750049,"Casa para familia, 02 quartos.",Botafogo,Casa/Apto Inteiro,3,2.0,2.0,325.0,Médio-Baixo,-22.955978212707887,-43.1810237788208,5.0,2,f,2,Médio (3-4)
47987451,"Moderno e Equipado com Piscina, Acad e 5m do Metrô",Botafogo,Casa/Apto Inteiro,4,2.0,3.0,374.0,Médio-Baixo,-22.9497,-43.18472,4.89,38,f,3,Médio (3-4)
1374215096339775594,Room in apartment with 5m garage on Recreio beach,Recreio dos Bandeirantes,Quarto Privado,2,1.0,1.0,94.0,Muito Baixo,-23.012348531348582,-43.45222420424185,4.33,3,f,1,Pequeno (1-2)
808046451377198400,Conforto e Acolhimento,Copacabana,Casa/Apto Inteiro,2,1.0,1.0,400.0,Médio-Baixo,-22.969284,-43.1890154,4.95,20,f,3,Pequeno (1-2)
709237644419965344,Apartamento quadra da praia.,Copacabana,Casa/Apto Inteiro,5,1.0,1.0,155.0,Baixo,-22.96916796933092,-43.182733765248166,4.88,32,f,1,Grande (5+)
1359405036989605982,Espaço Ponto de apoio no Leme,Copacabana,Casa/Apto Inteiro,4,1.0,1.0,400.0,Médio-Baixo,-22.9631929019743,-43.174134299710126,4.0,4,f,5,Médio (3-4)
46606272,Quarto pequeno solteiro no Flamengo | Gay-friendly,Flamengo,Quarto Privado,1,1.0,1.0,108.0,Muito Baixo,-22.939798518338986,-43.17779621065273,4.81,59,f,3,Pequeno (1-2)
568017023466801588,Apto Completo 2 Quadras da Praia ótima localização,Copacabana,Casa/Apto Inteiro,4,1.0,1.0,256.0,Baixo,-22.97673,-43.18978,4.86,87,t,1,Médio (3-4)
778451710122360367,Apto 1 quarto+sala em Copacabana,Copacabana,Casa/Apto Inteiro,4,1.0,1.0,184.0,Baixo,-22.970933,-43.1876107,5.0,5,f,3,Médio (3-4)
1282918699715107444,Recreio dos Bandeirantes - Espaço Inteiro,Recreio dos Bandeirantes,Casa/Apto Inteiro,6,2.0,2.0,313.0,Médio-Baixo,-23.02366615280082,-43.51440110849007,5.0,10,f,1,Grande (5+)
30085946,Ipanema com garagem,Ipanema,Casa/Apto Inteiro,4,1.0,2.0,339.0,Médio-Baixo,-22.98319,-43.2017,4.81,62,t,2,Médio (3-4)
924714765455848324,dois quartos um banheiro,Tijuca,Quarto Privado,2,2.0,1.0,,,-22.92498291336921,-43.23775763289324,0.0,0,f,1,Pequeno (1-2)
1298095915892844319,3 Quartos Alto padrão em Copa,Copacabana,Casa/Apto Inteiro,8,3.0,3.0,751.0,Médio,-22.96383,-43.17693,0.0,0,f,3,Grande (5+)
13855342,Olympics in seafront to Ipanema,Ipanema,Casa/Apto Inteiro,7,3.0,2.5,3000.0,Alto,-22.9866,-43.19356,0.0,0,f,5,Grande (5+)
19141894,Aconchegante apartamento no Catete,Flamengo,Casa/Apto Inteiro,2,1.0,1.0,121.0,Muito Baixo,-22.92814,-43.17578,4.84,174,t,3,Pequeno (1-2)
1389830744598240586,Quarto no centro do Rio c/ metrô,Estácio,Quarto Privado,1,1.0,2.0,126.0,Muito Baixo,-22.9147561,-43.2049996,0.0,0,f,1,Pequeno (1-2)
1080637163388739649,Apt moderno no coração do Leblon,Leblon,Casa/Apto Inteiro,4,2.0,1.5,285.0,Baixo,-22.97950859486473,-43.22491048117716,4.2,5,f,2,Médio (3-4)
730658,Beautiful house in Santa Teresa Rio,Santa Teresa,Quarto Privado,3,1.0,1.0,250.0,Baixo,-22.93915,-43.2079,4.81,91,f,2,Médio (3-4)
777444030596629510,Alugo para carnaval,Recreio dos Bandeirantes,Quarto Privado,2,1.0,1.0,1000.0,Médio,-23.0287562,-43.476905,5.0,1,f,1,Pequeno (1-2)
16373720,Suite Quadrado Lapa Centro Histórico Marina Glória,Glória,Quarto Privado,2,1.0,1.0,279.0,Baixo,-22.91666,-43.17599,4.86,37,t,2,Pequeno (1-2)
1144103025784511463,Ocean Front - Praia do Pepê - Barra da Tijuca,Barra da Tijuca,Casa/Apto Inteiro,5,2.0,2.0,818.0,Médio,-23.0145087,-43.3033175,4.98,42,t,1,Grande (5+)
47179769,"Design Appartment at São Conrado , Rio de Janeiro.",São Conrado,Casa/Apto Inteiro,2,1.0,1.0,600.0,Médio,-22.99281,-43.25449,5.0,2,f,4,Pequeno (1-2)
1420330202530938403,Aconchego Central - Quarto Ap,Centro,Quarto Privado,2,1.0,1.0,59.0,Muito Baixo,-22.909399,-43.193728,5.0,1,f,1,Pequeno (1-2)
1332650073764304430,TIR20 #1006 - 1 quadra da praia_Lavadora_Reformado,Copacabana,Casa/Apto Inteiro,4,1.0,1.0,287.0,Baixo,-22.96635,-43.18106,5.0,21,t,1,Médio (3-4)
38928504,"Apto Copacabana, 2 quartos,1 quadra da praia,Wi-fi",Copacabana,Casa/Apto Inteiro,6,2.0,2.0,293.0,Baixo,-22.96593,-43.17761,4.94,159,t,3,Grande (5+)
684733693129474931,Lindo Flat Vista Mar Barra da Tijuca,Barra da Tijuca,Casa/Apto Inteiro,2,1.0,1.0,194.0,Baixo,-23.0052,-43.33995,4.95,78,t,2,Pequeno (1-2)
3191383,Charmoso apartamento  em Santa Teresa,Santa Teresa,Casa/Apto Inteiro,2,1.0,1.0,300.0,Baixo,-22.92213,-43.18611,5.0,4,f,5,Pequeno (1-2)
1155743409594270494,Suíte aconchegante no coração do Rio de Janeiro,Centro,Casa/Apto Inteiro,2,1.0,1.0,171.0,Baixo,-22.9001411,-43.1799214,4.32,19,f,1,Pequeno (1-2)
1437890337535328446,Lindo Apartamento Quadra da Praia NSC1141-503A,Copacabana,Casa/Apto Inteiro,5,1.0,1.0,280.0,Baixo,-22.9803958,-43.190829,5.0,1,f,1,Grande (5+)
3043505,Suite perto do Maracanã,Tijuca,Quarto Privado,2,1.0,1.0,290.0,Baixo,-22.92088,-43.23038,0.0,0,f,3,Pequeno (1-2)
1421721731018772968,Castelo De Santa Teresa Quarto 5,Santa Teresa,Quarto Privado,2,1.0,1.0,129.0,Muito Baixo,-22.923646416643997,-43.191793266076914,0.0,0,f,1,Pequeno (1-2)
1410983299382407599,Anchieta Street - Neighborhood: Leme,Leme,Casa/Apto Inteiro,3,1.0,1.0,260.0,Baixo,-22.9624967,-43.1703159,4.0,1,f,1,Médio (3-4)
1384206309502854544,"Apto com Vista Cristo, Piscina,Garagem e Serviços",Humaitá,Casa/Apto Inteiro,4,2.0,2.0,485.0,Médio-Baixo,-22.9592324513211,-43.20213754998869,5.0,3,t,2,Médio (3-4)
1440001816803615929,Quarto e Sala/posto 6/quadra mar,Copacabana,Casa/Apto Inteiro,3,1.0,1.0,461.0,Médio-Baixo,-22.9852501,-43.1900475,0.0,0,f,28,Médio (3-4)
1303528559132181405,Apê no coração de Botafogo,Botafogo,Casa/Apto Inteiro,2,1.0,1.0,252.0,Baixo,-22.9524,-43.18284,5.0,7,f,2,Pequeno (1-2)
695095518857603105,Hospede-se na Barra. Riocentro e parque olímpico.,Jacarepaguá,Casa/Apto Inteiro,5,2.0,1.0,252.0,Baixo,-22.96596,-43.39576,4.7,40,f,2,Grande (5+)
25952188,Small's Home your home.,Méier,Quarto Privado,2,1.0,1.0,,,-22.89308,-43.27829,0.0,0,f,1,Pequeno (1-2)
1232706425221536658,Cosy apartment in Ipanema near the beach,Ipanema,Casa/Apto Inteiro,4,2.0,2.5,400.0,Médio-Baixo,-22.980730045450063,-43.20085814115823,5.0,7,t,2,Médio (3-4)
1349191856500895489,SÓ HOJE: Valor OFF na Barra!,Barra da Tijuca,Casa/Apto Inteiro,8,4.0,3.0,1200.0,Médio-Alto,-23.00778,-43.3097,0.0,0,f,3,Grande (5+)
1341529566241950545,Uma experiência incrível em frente à praia.,Barra da Tijuca,Casa/Apto Inteiro,4,1.0,1.0,380.0,Médio-Baixo,-23.01023045139654,-43.33366356790066,5.0,14,t,2,Médio (3-4)
822923206165045984,"Apartamento completo. 15 min praia, 55 da marquês",Jacarepaguá,Casa/Apto Inteiro,4,2.0,1.0,523.0,Médio-Baixo,-22.96353218945397,-43.40102977619718,5.0,7,f,1,Médio (3-4)
959357933861152696,Veneza Twin,Itanhangá,Quarto Privado,2,1.0,1.5,328.0,Médio-Baixo,-23.000643112249048,-43.30643795140261,5.0,2,f,1,Pequeno (1-2)
1339317760445134110,Apartamento bem perto da praia.,Copacabana,Casa/Apto Inteiro,2,1.0,1.0,2800.0,Alto,-22.96200859241911,-43.17732243281639,5.0,2,f,1,Pequeno (1-2)
41882674,Casa rosa,Encantado,Quarto Privado,5,2.0,1.0,,,-22.89132,-43.29891,5.0,1,f,3,Grande (5+)
528389,Quiet 1 bedroom apartment at Rio,Gávea,Casa/Apto Inteiro,2,1.0,1.0,230.0,Baixo,-22.97318,-43.22614,4.27,15,f,4,Pequeno (1-2)
1158674185819521403,Apartamento charmoso,Laranjeiras,Casa/Apto Inteiro,6,2.0,1.5,176.0,Baixo,-22.9362922,-43.1895847,4.8,10,t,2,Grande (5+)
1237151308720466155,Apartamento em Copacabana,Copacabana,Casa/Apto Inteiro,6,3.0,2.0,492.0,Médio-Baixo,-22.9644742,-43.1773412,5.0,22,t,3,Grande (5+)
957926638490013003,Castelo na subida da Floresta,Itanhangá,Casa/Apto Inteiro,12,4.0,4.0,3500.0,Alto,-22.9840716,-43.3012982,0.0,0,,5,Grande (5+)
1285762762021460246,"Copacabana, poucos passos da praia",Copacabana,Casa/Apto Inteiro,4,2.0,1.5,440.0,Médio-Baixo,-22.98485716614016,-43.19090028129442,5.0,10,f,3,Médio (3-4)
779425505295270864,Apartamento Centro/Glória,Santa Teresa,Casa/Apto Inteiro,4,1.0,1.0,215.0,Baixo,-22.91716387119176,-43.178791143000126,4.9,94,t,1,Médio (3-4)
944825804257515335,Praia Ipanema - Aconchego a 5 minutos do mar,Ipanema,Casa/Apto Inteiro,6,3.0,3.0,938.0,Médio,-22.9847958,-43.1999674,5.0,9,f,2,Grande (5+)
771894474636513194,Apartamento no Rio de Janeiro (Lapa),Centro,Casa/Apto Inteiro,4,2.0,2.0,1053.0,Médio,-22.9141266,-43.1834788,4.91,23,f,4,Médio (3-4)
1273460035274620633,Apartamento em Copacabana.,Copacabana,Casa/Apto Inteiro,8,2.0,2.0,440.0,Médio-Baixo,-22.9660779,-43.1821651,4.3,10,f,1,Grande (5+)
39990663,103- Suite Leblon(S) Aerop. Galeão Ilha Governador,Portuguesa,Quarto Privado,2,1.0,1.0,178.0,Baixo,-22.79589,-43.20718,4.77,95,t,1,Pequeno (1-2)
1248914591975212805,_ A16_ Maracanã,Santo Cristo,Casa/Apto Inteiro,9,2.0,1.0,200.0,Baixo,-22.906876582904783,-43.20650026817459,4.75,24,t,1,Grande (5+)
1348896338713459746,"Soul Rio,Copa Cabana, Posto4, Wifi, Ac,Tv,1Br,3Bed",Copacabana,Casa/Apto Inteiro,5,1.0,1.0,361.0,Médio-Baixo,-22.974349095916786,-43.18915687501431,4.75,4,f,2,Grande (5+)
1373331244185604930,Suíte Recreio 20min da praia,Recreio dos Bandeirantes,Quarto Privado,2,1.0,1.0,,,-23.01276,-43.45116,5.0,1,f,2,Pequeno (1-2)
1432010781122272059,Bem-vindo ao apê da Jaque / Leme dos sonhos,Leme,Quarto Privado,3,1.0,1.0,152.0,Baixo,-22.964214168222465,-43.17181837885302,0.0,0,f,2,Médio (3-4)
764205,Sugar Loaf Balcony (Zona Sul),Botafogo,Quarto Privado,6,3.0,1.0,,,-22.94333,-43.18522,5.0,1,t,4,Grande (5+)
1437979688331020919,Apartamento em Copacabana post 4,Copacabana,Casa/Apto Inteiro,2,1.0,1.0,236.0,Baixo,-22.96922,-43.1847,5.0,1,f,2,Pequeno (1-2)
1024146069934956670,"Copacabana, 300 metros da praia",Copacabana,Casa/Apto Inteiro,4,1.0,1.0,167.0,Baixo,-22.96504,-43.17878,4.93,56,t,10,Médio (3-4)
757786139574460249,Lindo Flat Vista Mar Barra da Tijuca,Barra da Tijuca,Casa/Apto Inteiro,2,1.0,1.0,184.0,Baixo,-23.00368,-43.34008,4.83,76,t,1,Pequeno (1-2)
1363113837199407113,Apartment with bathtub on Ipanema Beach,Ipanema,Casa/Apto Inteiro,4,1.0,1.0,624.0,Médio,-22.98540322209971,-43.19891728465576,5.0,11,t,1,Médio (3-4)
22907250,Perfect location in Copacabana/Ipanema!,Copacabana,Casa/Apto Inteiro,5,2.0,1.0,,,-22.9831,-43.19261,5.0,4,f,3,Grande (5+)
11970984,Ótimo 2 quartos. A três minutos a pé da praia.,Barra da Tijuca,Casa/Apto Inteiro,5,2.0,2.0,259.0,Baixo,-23.01137,-43.30048,4.67,24,t,4,Grande (5+)
1435056466575945907,Apartamento completo!,Laranjeiras,Casa/Apto Inteiro,4,2.0,1.0,242.0,Baixo,-22.93198,-43.18085,5.0,2,f,2,Médio (3-4)
639374375948640067,Quarto Pequeno Perto do CASV (Visto Americano).,Botafogo,Quarto Privado,2,1.0,1.0,117.0,Muito Baixo,-22.9562,-43.19577,4.97,36,t,1,Pequeno (1-2)
1200855575990087160,Suíte Privativa 9 /Cinelândia RJ,Centro,Quarto Privado,2,1.0,1.0,174.0,Baixo,-22.912042395876075,-43.1758492239905,5.0,6,f,1,Pequeno (1-2)
1358790669294786029,Studio Fantástico  Centro RJ,Centro,Casa/Apto Inteiro,4,1.0,1.0,158.0,Baixo,-22.9114634,-43.1931616,4.93,30,t,1,Médio (3-4)
7100391,Apartment at Praia da Barra,Barra da Tijuca,Casa/Apto Inteiro,4,1.0,1.0,550.0,Médio-Baixo,-23.01167,-43.31965,4.76,41,f,2,Médio (3-4)
820254224350753722,Flat Completo. Barra  RioCentro+,Camorim,Casa/Apto Inteiro,4,1.0,1.0,238.0,Baixo,-22.982229668046703,-43.42460745273178,5.0,4,f,1,Médio (3-4)
1349154969458047215,Vista deslumbrante,Lagoa,Casa/Apto Inteiro,2,1.0,1.0,1212.0,Médio-Alto,-22.973369017774267,-43.20472575724125,5.0,2,f,4,Pequeno (1-2)
803131762746187646,Píer vista espetacular Barra,Barra da Tijuca,Casa/Apto Inteiro,6,3.0,1.0,,,-23.009587,-43.2998026,0.0,0,f,1,Grande (5+)
1348530834047381888,Le Relais de Marambaia 7 suítes,Barra de Guaratiba,Quarto Privado,16,7.0,1.0,395.0,Médio-Baixo,-23.06508,-43.56656,0.0,0,f,1,Grande (5+)
13604636,Studio apartment near Copacabana beach.,Copacabana,Casa/Apto Inteiro,3,0.0,1.0,162.0,Baixo,-22.96656,-43.18089,4.98,46,f,21,Médio (3-4)
17989551,Quarto para 1 pessoa (sexo feminino),Campinho,Quarto Privado,1,2.0,1.0,,,-22.88355,-43.35084,0.0,0,f,1,Pequeno (1-2)
879645357999592448,Rooftop Ocean View Penthouse in Copacabana,Copacabana,Casa/Apto Inteiro,4,1.0,2.0,359.0,Médio-Baixo,-22.9618518,-43.174883,4.81,31,t,2,Médio (3-4)
39203153,Melhor Localização do Rio!,Flamengo,Casa/Apto Inteiro,4,1.0,1.0,148.0,Baixo,-22.93881,-43.17581,4.71,7,f,1,Médio (3-4)
740526426605690299,Loft na Urca,Urca,Casa/Apto Inteiro,2,0.0,0.5,211.0,Baixo,-22.950111077330256,-43.16710207611322,5.0,24,t,3,Pequeno (1-2)
1414631089348683499,Hotel Nacional Rio de Janeiro,São Conrado,Quarto Privado,4,1.0,1.0,440.0,Médio-Baixo,-22.996898685527466,-43.257863373903895,0.0,0,f,1,Médio (3-4)
896972732839206459,"Studio Leblon 303, Melhor localização 5min praia",Leblon,Casa/Apto Inteiro,2,1.0,1.0,156.0,Baixo,-22.982519,-43.2231213,4.86,70,f,2,Pequeno (1-2)
1442710121378373776,Botafogo Conforto e Vista no Melhor Ponto,Botafogo,Casa/Apto Inteiro,4,2.0,1.0,361.0,Médio-Baixo,-22.95457,-43.19033,0.0,0,f,2,Médio (3-4)
1577088,"Spacious 2 bdrm, Praia do Flamengo",Glória,Casa/Apto Inteiro,5,3.0,2.0,900.0,Médio,-22.92368,-43.1718,4.85,13,f,3,Grande (5+)
1345010644852355814,Perto BRT(interliga metrô Copacabana)piscina praia,Recreio dos Bandeirantes,Casa/Apto Inteiro,5,2.0,1.0,,,-23.0206089,-43.4761398,4.0,1,f,3,Grande (5+)
1203628038592140842,Cosy Loft Vista Pão de Açúcar,Botafogo,Casa/Apto Inteiro,3,0.0,1.0,237.0,Baixo,-22.94698839720704,-43.182989330628345,4.75,4,f,3,Médio (3-4)
1358690784007983028,2 Bedrooms w/ Sea View in Copacabana | FDM 7/91,Copacabana,Casa/Apto Inteiro,4,2.0,2.0,449.0,Médio-Baixo,-22.96733,-43.17927,5.0,3,t,1,Médio (3-4)
14150801,Cobertura ótima localização 3 aconchegante!,Recreio dos Bandeirantes,Casa/Apto Inteiro,6,2.0,2.0,500.0,Médio-Baixo,-23.02437,-43.47613,0.0,0,f,4,Grande (5+)
1070483457458840180,Ap aconchegante perto do metrô.,Catete,Casa/Apto Inteiro,4,1.0,1.0,,,-22.92589247894688,-43.17735716700554,0.0,0,f,3,Médio (3-4)
1258854480645325554,Copa 3 qtos pertíssimo da praia,Copacabana,Casa/Apto Inteiro,5,3.0,2.0,682.0,Médio,-22.9746,-43.18883,5.0,1,,5,Grande (5+)
1357896049467342467,Duplex no coração do Leblon,Leblon,Casa/Apto Inteiro,5,2.0,3.0,796.0,Médio,-22.98708,-43.22743,4.86,7,f,3,Grande (5+)
5124202,Room with bathroom in Copacabana,Copacabana,Quarto Privado,2,1.0,1.5,99.0,Muito Baixo,-22.96287,-43.17689,4.06,16,f,5,Pequeno (1-2)
944362434341621094,Studio 527 Copacabana - Posto 6,Copacabana,Casa/Apto Inteiro,2,1.0,1.0,209.0,Baixo,-22.98305,-43.19114,4.89,61,t,3,Pequeno (1-2)
827615492434173677,Quarto Botafogo Ar Cond com entrada independente,Botafogo,Quarto Privado,4,1.0,1.0,127.0,Muito Baixo,-22.95336,-43.1838,5.0,5,t,2,Médio (3-4)
1063676575440182986,Best of Copa Posto 5,Copacabana,Casa/Apto Inteiro,6,3.0,2.0,1071.0,Médio,-22.97924903005373,-43.19095730781555,5.0,14,t,4,Grande (5+)
1127046461102395986,Experiência Carioca  simples metro Barra daTijuca,Barra da Tijuca,Casa/Apto Inteiro,2,1.0,1.0,185.0,Baixo,-23.0050224267308,-43.31465978175402,4.5,2,f,3,Pequeno (1-2)
53362745,Kitnet Sol da manhã,Curicica,Casa/Apto Inteiro,2,1.0,1.0,,,-22.952942,-43.38089,0.0,0,f,3,Pequeno (1-2)
13854091,Excelente 3 Quartos na Freguesia (Jacarepagua),Freguesia (Jacarepaguá),Casa/Apto Inteiro,6,3.0,3.0,1000.0,Médio,-22.9312,-43.32611,0.0,0,f,7,Grande (5+)
1190614856981567743,Quarto Compart. 100m da praia em Copacabana,Copacabana,Quarto Privado,3,1.0,1.0,140.0,Muito Baixo,-22.96568,-43.17622,4.61,61,f,1,Médio (3-4)
5467221,Comfortable apartment | Catete,Catete,Casa/Apto Inteiro,2,1.0,1.0,1286.0,Médio-Alto,-22.92524,-43.18009,0.0,0,f,2,Pequeno (1-2)
608872645888423803,Apartamento Espaçoso e Clássico no Rio de Janeiro,Glória,Casa/Apto Inteiro,4,2.0,2.0,315.0,Médio-Baixo,-22.920435,-43.180424,4.88,52,t,2,Médio (3-4)
1427525469909987485,Apartamento Praia de Copacabana,Copacabana,Casa/Apto Inteiro,2,1.0,1.0,245.0,Baixo,-22.97087451068792,-43.18774167448282,0.0,0,f,1,Pequeno (1-2)
1211633532455559661,"Meu cantinho - Rock in Rio, Rio Centro",Jacarepaguá,Casa/Apto Inteiro,5,2.0,1.0,220.0,Baixo,-22.96808,-43.39688,4.8,15,t,2,Grande (5+)
1417499268232480561,Casa na colina,Catete,Quarto Privado,2,1.0,1.0,135.0,Muito Baixo,-22.924802393304457,-43.18389287400952,0.0,0,f,1,Pequeno (1-2)
775330880557684961,Copacabana apartamento na praia,Copacabana,Casa/Apto Inteiro,13,5.0,3.5,3163.0,Alto,-22.971337259137144,-43.18402962698364,4.89,35,t,3,Grande (5+)
2353745,"Room with bathroom, Wi-Fi, and air conditioning.",Humaitá,Quarto Privado,3,1.0,1.0,170.0,Baixo,-22.95595,-43.19946,4.92,93,t,2,Médio (3-4)
991102524537510471,Apto Luxo vista pro Mar - Hotel Nacional,São Conrado,Quarto Privado,4,1.0,1.0,,,-22.9980396,-43.2568208,0.0,0,f,3,Médio (3-4)
1191918627901452203,Quarto para Rock in Rio,Vargem Pequena,Quarto Privado,2,4.0,2.0,200.0,Baixo,-22.99024425160932,-43.45712286886474,0.0,0,f,2,Pequeno (1-2)
1237611856853195868,Copacabana 4,Copacabana,Quarto Compartilhado,4,1.0,2.0,90.0,Muito Baixo,-22.96538232417685,-43.17620607035268,4.67,6,f,2,Médio (3-4)
31000522,Praia e conforto! Dois quartos/sala/3 banheiros,Copacabana,Casa/Apto Inteiro,8,2.0,3.0,357.0,Médio-Baixo,-22.97277,-43.19195,4.84,107,t,2,Grande (5+)
18036273,Loft 2 bedrooms Luna Azul !,Copacabana,Casa/Apto Inteiro,4,2.0,1.0,367.0,Médio-Baixo,-22.97584,-43.19535,0.0,0,f,4,Médio (3-4)
960134765323352298,"Clean, Básico e Aconchegante",Santa Teresa,Casa/Apto Inteiro,4,1.0,1.0,,,-22.914983953334676,-43.18336229771376,2.33,3,f,3,Médio (3-4)
822350106068230989,Color Foul Apartament in Copacabana Heart C1-0016,Copacabana,Casa/Apto Inteiro,5,2.0,1.0,499.0,Médio-Baixo,-22.96573343350034,-43.17917895720243,3.0,1,f,3,Grande (5+)
695857334968550331,Gigante Melhor Localização de Copacabana,Copacabana,Casa/Apto Inteiro,16,4.0,1.0,,,-22.97468,-43.18957,0.0,0,t,1,Grande (5+)
1118677526078583404,Apartamento Praça da Bandeira-Tijuca Blue Utile,Praça da Bandeira,Casa/Apto Inteiro,2,1.0,1.0,130.0,Muito Baixo,-22.914873087862293,-43.21238245815039,5.0,56,t,1,Pequeno (1-2)
1283266744533621493,shows e  jogos no Engenhão Guineza,Engenho de Dentro,Casa/Apto Inteiro,4,1.0,1.0,340.0,Médio-Baixo,-22.8941297,-43.2986444,4.6,5,f,2,Médio (3-4)
2559802,Apartamento vintage na Glória,Glória,Casa/Apto Inteiro,9,5.0,4.0,25000.0,Muito Alto,-22.92239,-43.17506,5.0,7,t,4,Grande (5+)
1424977472461398070,Studio Dowtown tech 3,Centro,Casa/Apto Inteiro,2,1.0,1.0,188.0,Baixo,-22.90439850999344,-43.181019723415375,0.0,0,t,5,Pequeno (1-2)
12675486,Apartamento Boulevard   Olímpico 2016,Gamboa,Casa/Apto Inteiro,10,2.0,1.0,2500.0,Alto,-22.89622,-43.19508,0.0,0,f,10,Grande (5+)
610137518991670926,Suíte Master Luxo com Ar Barra P.Olimpico,Jacarepaguá,Quarto Privado,2,1.0,1.0,1378.0,Médio-Alto,-22.9673,-43.38509,5.0,1,f,5,Pequeno (1-2)
1363858338851414849,Cozy Lapa apartment,Centro,Casa/Apto Inteiro,4,1.0,1.0,134.0,Muito Baixo,-22.9165,-43.1775,4.86,7,t,1,Médio (3-4)
1408928894357896932,Seu Cantinho em Copacabana,Copacabana,Casa/Apto Inteiro,4,1.0,1.0,180.0,Baixo,-22.9683537,-43.1823213,5.0,2,f,2,Médio (3-4)
828630933115745882,Quartinho aconchegante em apartamento espaçoso.,Ipanema,Quarto Privado,2,1.0,1.0,151.0,Baixo,-22.984625759082164,-43.19948221281763,0.0,0,f,2,Pequeno (1-2)
51703,"Ocean view, block of the beach, Copacabana,Ipanema",Copacabana,Casa/Apto Inteiro,2,0.0,1.0,201.0,Baixo,-22.981731,-43.190571,4.78,309,t,1,Pequeno (1-2)
1426864643957194630,Ipanema 2 qts Piscina & Garagem,Ipanema,Casa/Apto Inteiro,3,2.0,2.0,921.0,Médio,-22.98683,-43.19491,0.0,0,f,5,Médio (3-4)
1241929452808882549,"Casa 5 suítes, reta da praia c/piscina e Jacuzzis",Recreio dos Bandeirantes,Casa/Apto Inteiro,12,5.0,4.5,2047.0,Alto,-23.014240956853342,-43.49251974374056,4.96,24,t,1,Grande (5+)
776862912591244078,Apartamento térreo com varanda e churrasqueira,Laranjeiras,Casa/Apto Inteiro,4,2.0,1.0,290.0,Baixo,-22.93626,-43.19001,4.94,17,t,3,Médio (3-4)
1086499103174646740,Ipanema 105 Comfort Acesso 3 praias,Ipanema,Casa/Apto Inteiro,4,1.0,1.0,257.0,Baixo,-22.9866994,-43.1940511,4.25,8,f,3,Médio (3-4)
1393512103523039748,Studio CG5,Campo Grande,Casa/Apto Inteiro,3,1.0,1.0,128.0,Muito Baixo,-22.88041,-43.57478,5.0,15,t,1,Médio (3-4)
953543051044554795,lar aconchegante,Copacabana,Casa/Apto Inteiro,4,1.0,1.0,250.0,Baixo,-22.978247892921264,-43.19315326425359,4.89,9,f,2,Médio (3-4)
1305829472261926902,Studio 300m from Copacabana Beach | SC 86/508,Copacabana,Casa/Apto Inteiro,2,1.0,1.0,176.0,Baixo,-22.97201331937083,-43.18802031972615,4.2,5,f,1,Pequeno (1-2)
1065278528957931183,Apto. no melhor de Botafogo,Botafogo,Casa/Apto Inteiro,3,1.0,1.0,,,-22.95696,-43.18164,0.0,0,f,5,Médio (3-4)
1138423959843761331,"Apto. moderno, funcional e bem localizado em Copa",Copacabana,Casa/Apto Inteiro,4,2.0,1.5,408.0,Médio-Baixo,-22.976892682220157,-43.18861041199279,4.85,27,t,3,Médio (3-4)
1026751830094357196,Barrinha,Barra da Tijuca,Casa/Apto Inteiro,7,2.0,2.0,476.0,Médio-Baixo,-23.011365,-43.2951594,5.0,1,f,1,Grande (5+)
4820924,Lugar calmo e silencioso!,Santa Teresa,Quarto Privado,1,1.0,1.0,376.0,Médio-Baixo,-22.92578,-43.18968,5.0,6,f,2,Pequeno (1-2)
1282525268550730653,Cozy renovated studio two blocks from the beach,Copacabana,Casa/Apto Inteiro,4,0.0,1.0,205.0,Baixo,-22.9640091,-43.1772697,4.92,13,t,3,Médio (3-4)
1307888492773977451,Room in Copacabana,Copacabana,Quarto Privado,1,1.0,1.0,250.0,Baixo,-22.96978,-43.18525,0.0,0,,1,Pequeno (1-2)
797758055245981265,Classic one-bedroom apartment at the beach block,Copacabana,Casa/Apto Inteiro,4,1.0,1.0,267.0,Baixo,-22.9805419,-43.1909412,4.89,129,t,2,Médio (3-4)
724485789894492471,Micro casa com vista Incrível RJ,Santa Teresa,Quarto Privado,1,1.0,1.0,70.0,Muito Baixo,-22.92959,-43.19391,0.0,0,f,1,Pequeno (1-2)
1230354852554065096,Estilo e Tranquilidade no Coração de Copacabana,Copacabana,Casa/Apto Inteiro,3,1.0,1.5,264.0,Baixo,-22.966574100321065,-43.18527213862304,4.5,10,f,2,Médio (3-4)
936918260708241607,Quarto no rio de janeiro,Campo Grande,Quarto Privado,1,1.0,1.0,165.0,Baixo,-22.89482,-43.58689,0.0,0,f,1,Pequeno (1-2)
1392767603042474550,Mansão com vista para praia,São Conrado,Casa/Apto Inteiro,8,3.0,0.0,2379.0,Alto,-22.991567208046217,-43.27407561242581,0.0,0,f,3,Grande (5+)
1095142504300389521,Ordem e Progresso.,Gávea,Quarto Privado,2,1.0,2.0,224.0,Baixo,-22.9807325,-43.2326355,0.0,0,f,1,Pequeno (1-2)
1318370490817074077,"Copacabana: Elegante ap, tudo novo, 1 QD da praia",Copacabana,Casa/Apto Inteiro,8,3.0,2.0,923.0,Médio,-22.97299,-43.18895,5.0,5,f,2,Grande (5+)
627524379817185527,Quarto em Copacabana,Copacabana,Quarto Privado,1,1.0,1.0,858.0,Médio,-22.965979,-43.188564,0.0,0,f,3,Pequeno (1-2)
13554846,"Living room and 2 bedrooms, close to the Olympic Park at Barra",Jacarepaguá,Casa/Apto Inteiro,4,2.0,1.0,1100.0,Médio-Alto,-22.96369,-43.39951,0.0,0,f,3,Médio (3-4)
14026293,Awesome apartment in Lagoon,Lagoa,Casa/Apto Inteiro,4,2.0,3.0,1440.0,Médio-Alto,-22.97403,-43.19953,0.0,0,f,6,Médio (3-4)
700146148275620682,Cobertura duplex no Rock in Rio a 15 min da praia!,Barra da Tijuca,Casa/Apto Inteiro,6,2.0,2.0,2853.0,Alto,-22.97452,-43.39349,5.0,2,f,1,Grande (5+)
1440113556975472910,Studio perfeito para dois em Copa próximo a praia,Copacabana,Casa/Apto Inteiro,2,1.0,1.0,290.0,Baixo,-22.96755,-43.18327,5.0,1,t,2,Pequeno (1-2)
36712053,A MELHOR OPÇÃO NA Z.SUL P/ VIAGEM GRUPO/FAMÍLIA!,Ipanema,Casa/Apto Inteiro,10,3.0,2.0,3143.0,Alto,-22.98438,-43.19466,4.71,24,f,2,Grande (5+)
13874616,We are 5 min from the best beaches,Vargem Grande,Casa/Apto Inteiro,1,1.0,2.0,288.0,Baixo,-22.99238,-43.49397,0.0,0,f,1,Pequeno (1-2)
671020251646674081,Apartamento com arte e por do sol.,Recreio dos Bandeirantes,Quarto Privado,2,1.0,1.0,200.0,Baixo,-23.02178,-43.48578,5.0,1,f,1,Pequeno (1-2)
1319505890610142894,"Urban Rio | 3P, Wi-Fi, TV, Lava&Seca, A/C",Catete,Casa/Apto Inteiro,3,2.0,1.5,266.0,Baixo,-22.92891,-43.17719,5.0,7,f,2,Médio (3-4)
19938363,Amplo apartamento na Rua Bolívar em Copacabana!,Copacabana,Casa/Apto Inteiro,4,2.0,1.0,159.0,Baixo,-22.97656,-43.19003,4.77,61,t,2,Médio (3-4)
1084552250932940410,Suíte em Apartamento pertinho do mar,Copacabana,Quarto Privado,2,2.0,2.0,339.0,Médio-Baixo,-22.97648762544149,-43.1893801689148,5.0,1,f,3,Pequeno (1-2)
1158453524867192760,Morada dos Colibris III O Céu!,Jardim Guanabara,Casa/Apto Inteiro,8,3.0,3.5,1080.0,Médio,-22.810544938598152,-43.20901828343703,0.0,0,f,2,Grande (5+)
54028576,Apto maravilhoso perto da praia,Barra da Tijuca,Casa/Apto Inteiro,3,1.0,1.0,245.0,Baixo,-22.99677,-43.37701,4.97,31,f,3,Médio (3-4)
3345093,UNIQUE OCEAN FRONT LUXURY ESTATE,Joá,Casa/Apto Inteiro,14,5.0,8.0,6527.0,Muito Alto,-23.01298,-43.29039,0.0,0,f,7,Grande (5+)
1362877786284191580,Ipanema beach with a rooftop,Ipanema,Casa/Apto Inteiro,4,2.0,2.0,2240.0,Alto,-22.9870628,-43.1970154,5.0,1,f,1,Médio (3-4)
2011161,Cozy studio at Botafogo Beach: come and be amazed,Botafogo,Casa/Apto Inteiro,5,0.0,1.0,203.0,Baixo,-22.94896,-43.18371,4.93,421,t,2,Grande (5+)
1018296398199231056,Loft Centro/Lapa,Centro,Casa/Apto Inteiro,3,0.0,1.0,117.0,Muito Baixo,-22.915096256081576,-43.1890711533491,4.42,12,f,2,Médio (3-4)
1080287,copacabana * LUX penthouse *,Copacabana,Casa/Apto Inteiro,10,4.0,4.0,21246.0,Muito Alto,-22.98248,-43.19087,4.5,6,f,90,Grande (5+)
14774339,Apartamento super aconchegante,Barra da Tijuca,Casa/Apto Inteiro,4,3.0,2.0,1900.0,Alto,-22.97369,-43.388,0.0,0,f,1,Médio (3-4)
12157143,"Apartamento em Copacabana, vista para Mar e Cristo",Copacabana,Casa/Apto Inteiro,4,1.0,2.0,260.0,Baixo,-22.9717743,-43.1866317,4.91,45,t,3,Médio (3-4)
881996031651603270,Nice Penthouse with sea view in Rio - Vid001,Vidigal,Casa/Apto Inteiro,8,4.0,5.0,10019.0,Muito Alto,-22.993835061704885,-43.23543066704633,0.0,0,t,3,Grande (5+)
1436385177845148160,Quarto amplo em Copacabana,Copacabana,Quarto Privado,10,1.0,1.0,164.0,Baixo,-22.9635,-43.17355,5.0,2,f,1,Grande (5+)
48133132,Quarto delicioso com vista linda em casa de luxo,Itanhangá,Quarto Privado,3,1.0,1.5,130.0,Muito Baixo,-22.98546,-43.30383,4.97,223,t,1,Médio (3-4)
15702894,Aconchegante Apê.Posto3. 100m.praia de Copacabana,Copacabana,Casa/Apto Inteiro,4,1.0,1.0,250.0,Baixo,-22.96846,-43.18452,4.86,78,t,3,Médio (3-4)
51747381,IPANEMA AÇAÍ,Ipanema,Casa/Apto Inteiro,3,1.0,1.0,205.0,Baixo,-22.983,-43.21115,4.0,9,f,5,Médio (3-4)
9322608,"Copacabana Rio de Janeiro, 100 mts from the beach",Copacabana,Casa/Apto Inteiro,4,1.0,1.0,,,-22.96628,-43.17866,4.25,12,f,3,Médio (3-4)
768172,2 Qtos Ótima! Localização Copacabana Praia e Metrô,Copacabana,Casa/Apto Inteiro,4,2.0,1.5,398.0,Médio-Baixo,-22.97495,-43.19083,4.91,122,t,60,Médio (3-4)
881719805068570535,Flat Barra - Parque das Rosas,Barra da Tijuca,Casa/Apto Inteiro,4,2.0,1.0,,,-23.0030498,-43.3480597,5.0,1,f,2,Médio (3-4)
11019374,Cozy flat in Rio short or long term,Santa Teresa,Casa/Apto Inteiro,2,1.0,1.0,129.0,Muito Baixo,-22.91687,-43.18986,4.87,62,t,3,Pequeno (1-2)
1731827,Apartamento temporada Ipanema 3,Ipanema,Casa/Apto Inteiro,3,1.0,1.0,253.0,Baixo,-22.98576,-43.19337,4.76,123,t,2,Médio (3-4)
939031367957927569,Quarto em área central na Tijuca próximo metrô SFX,Tijuca,Quarto Privado,2,1.0,1.0,,,-22.9241545,-43.2216713,5.0,30,t,1,Pequeno (1-2)
1323892076714956405,"TIR17 #1910 - Av. Atlântica, 2 qts, ar sala/quarto",Copacabana,Casa/Apto Inteiro,4,2.0,1.0,361.0,Médio-Baixo,-22.96737,-43.18092,5.0,17,t,1,Médio (3-4)
31924144,JOÁ | Mansão Finamente Decorada c/ 3 Suítes!,Joá,Casa/Apto Inteiro,8,4.0,5.5,5500.0,Alto,-23.01142,-43.28937,0.0,0,,3,Grande (5+)
1353673539664622911,Apartamento no Flamengo,Laranjeiras,Casa/Apto Inteiro,2,1.0,1.0,350.0,Médio-Baixo,-22.93382062955017,-43.17907888721676,0.0,0,f,2,Pequeno (1-2)
1384172295003846265,Uma sala com varanda e sons,Santa Teresa,Quarto Privado,2,1.0,1.0,153.0,Baixo,-22.9198484,-43.1882707,5.0,1,f,1,Pequeno (1-2)
1144223071930050882,Temporada em Copacabana,Copacabana,Casa/Apto Inteiro,3,1.0,1.0,165.0,Baixo,-22.973351,-43.1914614,5.0,4,f,2,Médio (3-4)
1405118475583221615,Quarto solteiro completo,Copacabana,Quarto Privado,1,1.0,1.0,390.0,Médio-Baixo,-22.981060662799024,-43.19178548147584,0.0,0,f,1,Pequeno (1-2)
1316756937466942775,Studio lindo e confortável!,Centro,Casa/Apto Inteiro,2,1.0,1.0,312.0,Médio-Baixo,-22.89965,-43.17908,3.67,3,f,2,Pequeno (1-2)
1380353059997626466,Barra da Tijuca - Apto Beira Mar,Barra da Tijuca,Casa/Apto Inteiro,6,1.0,1.0,307.0,Baixo,-23.01236270682272,-43.32159335767213,4.67,6,f,1,Grande (5+)
47968759,"Bem no Centro: Smart TV,rodoviária,Maracanã perto",Centro,Casa/Apto Inteiro,5,1.0,1.0,110.0,Muito Baixo,-22.90758,-43.19418,4.88,16,t,2,Grande (5+)
1322167235011374035,Apartamento em Rio de Janeiro,Leme,Casa/Apto Inteiro,4,2.0,1.5,848.0,Médio,-22.96421,-43.17246,0.0,0,f,3,Médio (3-4)
1338734304693089372,Copacabana proximo a praia,Copacabana,Casa/Apto Inteiro,6,2.0,3.0,915.0,Médio,-22.97152493207539,-43.18490121513605,0.0,0,f,3,Grande (5+)
841876670599286220,Casa ampla com piscina em  Campo Grande/RJ,Campo Grande,Casa/Apto Inteiro,4,3.0,2.5,250.0,Baixo,-22.8818307954822,-43.557839765088815,1.0,1,f,4,Médio (3-4)
1433315935845464851,Elegant Retreat in Copacabana,Copacabana,Casa/Apto Inteiro,4,2.0,2.0,516.0,Médio-Baixo,-22.973441214361294,-43.18931929253145,0.0,0,f,3,Médio (3-4)
1337216164914147378,Apartamento no Leblon,Leblon,Casa/Apto Inteiro,4,2.0,2.0,497.0,Médio-Baixo,-22.9796397,-43.21993519999999,5.0,1,f,2,Médio (3-4)
1007259923743083399,Apt no Recreio 300m da praia,Recreio dos Bandeirantes,Casa/Apto Inteiro,6,3.0,3.0,450.0,Médio-Baixo,-23.02148178882238,-43.45433555117285,0.0,0,f,1,Grande (5+)
1366590111703874227,Suíte varandão Recreio piscina,Recreio dos Bandeirantes,Quarto Privado,2,1.0,1.0,374.0,Médio-Baixo,-23.01315,-43.49223,0.0,0,f,1,Pequeno (1-2)
777577882162313761,Casa no melhor bairro do Rio!,Santa Teresa,Casa/Apto Inteiro,4,2.0,2.0,1258.0,Médio-Alto,-22.92169685853369,-43.18833008408547,5.0,3,f,4,Médio (3-4)
641260160148987599,Quarto agradável no Jardim Botânico 2,Jardim Botânico,Quarto Privado,2,1.0,1.0,95.0,Muito Baixo,-22.964188,-43.2210287,4.82,51,f,2,Pequeno (1-2)
16757009,Beautiful Copacabana Penthouse!!!,Leme,Casa/Apto Inteiro,5,2.0,2.0,605.0,Médio,-22.96507,-43.17273,4.87,83,t,3,Grande (5+)
640704140521990077,Loft aconchegante no RJ (Tijuca/Vila Isabel),Vila Isabel,Casa/Apto Inteiro,4,1.0,1.0,161.0,Baixo,-22.91939,-43.24255,4.7,20,f,3,Médio (3-4)
954373329604590118,Praia Beira Mar vísta Ilhas e  Pedra da Gávea,Barra da Tijuca,Casa/Apto Inteiro,4,1.0,2.0,600.0,Médio,-23.01350250614959,-43.30926585942507,5.0,5,f,3,Médio (3-4)
1069726734146219766,Rock in Rio 2024,Jacarepaguá,Quarto Privado,2,2.0,1.0,600.0,Médio,-22.963769791787502,-43.39659213966655,0.0,0,f,1,Pequeno (1-2)
33407567,Quarto e sala em Botafogo bem próximo ao Metrô,Botafogo,Casa/Apto Inteiro,4,1.0,1.0,630.0,Médio,-22.95328,-43.18331,4.29,7,f,2,Médio (3-4)
53357817,AptoTérreo LUXO c/ Praias Lindas 2 Ar Cond.,Recreio dos Bandeirantes,Casa/Apto Inteiro,7,2.0,1.0,175.0,Baixo,-23.00359,-43.446,4.91,80,t,2,Grande (5+)
632605033408938845,House Copacabana,Copacabana,Casa/Apto Inteiro,3,1.0,1.0,292.0,Baixo,-22.96303,-43.17379,5.0,2,f,3,Médio (3-4)
771893355682889906,Quarto Individual em Copacabana - Posto 2,Copacabana,Quarto Privado,1,1.0,1.0,110.0,Muito Baixo,-22.96124,-43.17749,4.85,72,t,1,Pequeno (1-2)
33114394,Quarto 1 aconchegante 4 pessoas São Cristóvão,São Cristóvão,Quarto Privado,4,1.0,1.0,87.0,Muito Baixo,-22.9019,-43.22095,4.85,129,t,1,Médio (3-4)
1304325496741889879,Stella View Comodidade Lazer,Barra da Tijuca,Casa/Apto Inteiro,4,2.0,2.5,2500.0,Alto,-23.00312488365312,-43.39265161878736,0.0,0,f,5,Médio (3-4)
1334000447527863420,"Studio Completo - Wi-Fi, Ar e próximo ao Metrô",Centro,Casa/Apto Inteiro,2,1.0,1.0,293.0,Baixo,-22.91067795831008,-43.17735020050149,4.94,16,t,1,Pequeno (1-2)
1265118608937877008,Apartamento Amplo Bem Localizado,Cidade Nova,Casa/Apto Inteiro,10,3.0,2.0,495.0,Médio-Baixo,-22.9099796,-43.2022875,4.67,3,f,1,Grande (5+)
1060744412231293034,"Lindo Apto em frente a praia, Barra da Tijuca.",Barra da Tijuca,Casa/Apto Inteiro,4,1.0,1.0,399.0,Médio-Baixo,-23.009232,-43.3649397,4.93,55,t,3,Médio (3-4)
1256620987455030885,Segurança 24 horas. Coração Copacabana,Copacabana,Casa/Apto Inteiro,4,2.0,1.0,540.0,Médio-Baixo,-22.9738484,-43.187835,5.0,2,f,4,Médio (3-4)
997992797171499922,ENCANTADOr Apart. com Vista p/ CRISTo REDeNTOR,Botafogo,Casa/Apto Inteiro,4,2.0,1.0,,,-22.950994385440477,-43.19380144235839,4.93,41,t,2,Médio (3-4)
1399975062589414195,Vista Cristo a 400m da praia,Leblon,Casa/Apto Inteiro,4,1.0,1.5,1761.0,Médio-Alto,-22.98458113241808,-43.2224296438866,0.0,0,,2,Médio (3-4)
5684986,Apart-Hotel Mediterrâneo Flat para até 4 pessoas,Barra da Tijuca,Casa/Apto Inteiro,4,1.0,1.0,292.0,Baixo,-23.00527,-43.34176,4.72,164,t,1,Médio (3-4)
52006512,charm and comfort in the heart of Copacabana!,Copacabana,Casa/Apto Inteiro,3,1.0,1.0,168.0,Baixo,-22.97101593017578,-43.18937301635742,4.75,73,t,2,Médio (3-4)
567287426690738289,Suite maravilhosa em mansão com piscina,Itanhangá,Quarto Privado,4,1.0,1.0,150.0,Baixo,-22.98542,-43.30547,4.93,159,t,1,Médio (3-4)
47920760,"Suite, pool and gym | BPremium T2",Barra da Tijuca,Quarto Privado,3,1.0,1.0,180.0,Baixo,-23.00312,-43.39169,4.6,73,f,1,Médio (3-4)
581640506752908919,Comfortable and complete2 bedrooms in Ipanema,Ipanema,Casa/Apto Inteiro,6,2.0,2.0,539.0,Médio-Baixo,-22.98286,-43.20097,4.87,76,t,2,Grande (5+)
742739180822882640,Loft moderno e totalmente mobiliado na Atlântica,Copacabana,Casa/Apto Inteiro,3,1.0,1.0,249.0,Baixo,-22.9858,-43.19084,4.78,90,t,2,Médio (3-4)
834066569091158946,Suíte Mediterrâneo,Barra da Tijuca,Quarto Privado,2,1.0,1.0,,,-23.003880756102244,-43.34200391314829,4.93,86,t,2,Pequeno (1-2)
1209635525344140628,Conforto em frente a praia,Leme,Quarto Privado,2,1.0,1.0,123.0,Muito Baixo,-22.964971731955185,-43.17149214769994,4.96,71,,1,Pequeno (1-2)
1432073862059360381,Ipanema Cobertura Duplex V.Mar,Ipanema,Casa/Apto Inteiro,6,2.0,2.0,1477.0,Médio-Alto,-22.98544822046319,-43.20668913424015,0.0,0,f,2,Grande (5+)
1195571790214498973,Incrível lado Copacabana Palace,Copacabana,Casa/Apto Inteiro,4,1.0,1.0,216.0,Baixo,-22.9672858,-43.1810419,4.86,37,t,1,Médio (3-4)
1398694730600667107,•Apto centro do Rio de Janeiro. Ótima localização.,Centro,Casa/Apto Inteiro,4,1.0,1.0,304.0,Baixo,-22.91196,-43.17749,5.0,1,f,3,Médio (3-4)
1410115173243849559,beliche cama 3 esse quarto é compartilhado,Maracanã,Quarto Compartilhado,1,1.0,1.0,72.0,Muito Baixo,-22.91464,-43.23151,5.0,1,f,1,Pequeno (1-2)
1000061727328639259,av atlântica - Copacabana,Copacabana,Casa/Apto Inteiro,6,2.0,2.0,483.0,Médio-Baixo,-22.9706913,-43.18374,4.94,17,t,5,Grande (5+)
1386437664083621104,Próximo Lapa  St Tereza.metro,Centro,Casa/Apto Inteiro,2,0.0,1.0,558.0,Médio-Baixo,-22.90829,-43.19337,0.0,0,f,1,Pequeno (1-2)
1039725727512997787,Novo Leblon 2 Qrts Vista Mar,Barra da Tijuca,Casa/Apto Inteiro,6,2.0,3.0,1350.0,Médio-Alto,-23.0032313,-43.3811164,0.0,0,f,7,Grande (5+)
1387123609210553626,Recanto de Gaia,Paquetá,Casa/Apto Inteiro,2,1.0,1.0,125.0,Muito Baixo,-22.7666982,-43.11053930000001,5.0,7,f,2,Pequeno (1-2)
1243707365611083825,Ótimo quarto Copacabana,Copacabana,Quarto Privado,2,1.0,2.0,270.0,Baixo,-22.963092122260644,-43.19054091792236,5.0,3,f,2,Pequeno (1-2)
881271013667016191,Cantinho dos Medinas 3,Vidigal,Casa/Apto Inteiro,2,1.0,1.0,120.0,Muito Baixo,-22.99371,-43.23888,5.0,11,t,1,Pequeno (1-2)
1079929507092661295,Casa do Coité,Barra da Tijuca,Casa/Apto Inteiro,2,1.0,1.0,215.0,Baixo,-23.000718453293324,-43.41988753527403,4.54,13,f,1,Pequeno (1-2)
40690058,Estúdio uma quadra da praia. Excelente localização,Copacabana,Casa/Apto Inteiro,4,0.0,1.0,157.0,Baixo,-22.963476181030277,-43.17390441894531,4.79,133,t,3,Médio (3-4)
6395911,Conjugado simples em Copacabana,Copacabana,Casa/Apto Inteiro,5,0.0,1.0,173.0,Baixo,-22.963,-43.17536,4.5,32,f,1,Grande (5+)
2792963,Charming house in Jardim Botânico,Jardim Botânico,Casa/Apto Inteiro,5,2.0,3.5,4672.0,Alto,-22.96279,-43.22296,0.0,0,f,4,Grande (5+)
1270324878872581078,Apartamento no Recreio Rj,Recreio dos Bandeirantes,Casa/Apto Inteiro,4,2.0,2.0,315.0,Médio-Baixo,-23.006713,-43.4844452,0.0,0,f,1,Médio (3-4)
1423542255099199077,Kitnet,Guaratiba,Casa/Apto Inteiro,1,1.0,1.0,720.0,Médio,-22.97194,-43.65679,0.0,0,f,1,Pequeno (1-2)
1405875414143042510,Hospedagem para grupos na Tijuca,Tijuca,Casa/Apto Inteiro,16,10.0,4.0,2500.0,Alto,-22.91945586353661,-43.21468211710453,0.0,0,f,1,Grande (5+)
1187154042607981344,Vista Cristo Rio,Humaitá,Casa/Apto Inteiro,2,1.0,1.0,598.0,Médio,-22.95294,-43.19627,5.0,2,f,2,Pequeno (1-2)
602258052232825630,"RIO, LAPA, G20,  apt novo, perto do MAM, aerop SDU",Centro,Casa/Apto Inteiro,4,1.0,1.0,333.0,Médio-Baixo,-22.91319274902344,-43.18635940551758,5.0,9,f,2,Médio (3-4)
862030,Small Private Room - Ipanema Beach,Ipanema,Quarto Privado,1,1.0,2.5,187.0,Baixo,-22.98486,-43.21097,4.35,118,f,2,Pequeno (1-2)
1444186642140848511,apartamento aconchegante,Campo Grande,Casa/Apto Inteiro,4,2.0,1.0,120.0,Muito Baixo,-22.8610429,-43.5476602,0.0,0,f,1,Médio (3-4)
1360959458815450483,Excelente localização e silencioso perto da praia,Copacabana,Casa/Apto Inteiro,2,1.0,1.0,256.0,Baixo,-22.9719164,-43.1896473,5.0,10,f,1,Pequeno (1-2)
1107175739072724196,Loft Praia de Botafogo- Great View,Botafogo,Casa/Apto Inteiro,2,1.0,1.0,270.0,Baixo,-22.94590507891677,-43.182770535349846,4.69,13,f,3,Pequeno (1-2)
1326153758375882324,kit dormitório!,Copacabana,Casa/Apto Inteiro,4,1.0,1.0,270.0,Baixo,-22.97062,-43.1875,0.0,0,f,2,Médio (3-4)
13274285,Aluguel para o período das Olimpíadas,Jacarepaguá,Casa/Apto Inteiro,5,3.0,2.5,2748.0,Alto,-22.97109,-43.38274,0.0,0,f,20,Grande (5+)
788204740158611694,Room & Private Bathroom at 25m Copacabana Beach,Copacabana,Quarto Privado,1,1.0,1.0,142.0,Baixo,-22.97709,-43.189462,4.86,159,t,2,Pequeno (1-2)
1308195479294009430,Lindo Flat de frente pro mar. Praia do Pepe. Barra,Barra da Tijuca,Casa/Apto Inteiro,2,1.0,1.0,822.0,Médio,-23.0143952,-43.3095823,5.0,5,f,2,Pequeno (1-2)
1289753330641238845,Seu quarto na Lagoa (frente),Lagoa,Quarto Privado,1,1.0,1.0,212.0,Baixo,-22.9723184,-43.2080635,5.0,4,f,2,Pequeno (1-2)
1407854663434718855,Ipanema x Copacabana Novo Lindo!,Copacabana,Casa/Apto Inteiro,4,1.0,1.0,373.0,Médio-Baixo,-22.9840261,-43.1939087,4.6,5,t,3,Médio (3-4)
1400264978728845621,"100m to Copacabana Beach, Ipanema Next Door!",Copacabana,Casa/Apto Inteiro,3,1.0,1.0,322.0,Médio-Baixo,-22.98278,-43.19287,0.0,0,f,2,Médio (3-4)
1262942465179792663,Luxobrasil #RJ412 Cobertura Duplex Praia da Barra,Barra da Tijuca,Casa/Apto Inteiro,6,3.0,3.5,2185.0,Alto,-23.00919244677941,-43.31042920320671,0.0,0,f,5,Grande (5+)
1048917080610481521,Quarto simples perto da praia.,Botafogo,Quarto Privado,2,1.0,4.0,207.0,Baixo,-22.94073439714749,-43.18057388189045,4.0,2,f,20,Pequeno (1-2)
880401790318126670,Apartamento aconchegante em Copacabana.,Copacabana,Casa/Apto Inteiro,2,1.0,1.0,,,-22.97142,-43.18832,3.5,2,f,2,Pequeno (1-2)
2836205,apartamento para toda sua familia,Tijuca,Casa/Apto Inteiro,5,2.0,2.0,739.0,Médio,-22.93928,-43.25082,5.0,1,f,2,Grande (5+)
1291449566014740754,Lazer e conforto beira mar copacabana,Copacabana,Casa/Apto Inteiro,9,3.0,2.0,756.0,Médio,-22.984067778775543,-43.1905442456119,5.0,11,f,3,Grande (5+)
1222549594136153797,Apartamento frente mar e piscina,Recreio dos Bandeirantes,Casa/Apto Inteiro,4,1.0,1.0,1000.0,Médio,-23.03118,-43.47732,4.78,9,t,2,Médio (3-4)
42658065,Charmoso apartamento avenida Atlântica posto 6,Copacabana,Casa/Apto Inteiro,4,2.0,2.5,817.0,Médio,-22.98289,-43.19154,4.95,20,f,2,Médio (3-4)
799381605722575173,Apartamento Nova Urca,Botafogo,Casa/Apto Inteiro,5,2.0,2.0,362.0,Médio-Baixo,-22.9562228,-43.174813,4.86,64,t,2,Grande (5+)
1071225939979970271,Copa localização perfeita.,Copacabana,Casa/Apto Inteiro,4,1.0,1.0,361.0,Médio-Baixo,-22.963669829215096,-43.18162724375725,5.0,17,t,2,Médio (3-4)
53567070,Mansão Moderna Super Bem Decorada | DEL LAGO TOP!,Barra da Tijuca,Casa/Apto Inteiro,12,5.0,5.5,5000.0,Alto,-22.99114,-43.38079,0.0,0,,5,Grande (5+)
1310234602090601115,Quarto individual réveillon,Maracanã,Quarto Privado,2,1.0,1.0,900.0,Médio,-22.917677431457864,-43.22376474738121,0.0,0,f,3,Pequeno (1-2)
1361802133566170665,Vista inenarrável! Nascer do sol inesquecível,Botafogo,Casa/Apto Inteiro,2,1.0,1.0,206.0,Baixo,-22.9450784,-43.1826667,4.83,6,f,3,Pequeno (1-2)
1286215210431744288,Master Suite bathtub 4min Copacabana Beach,Copacabana,Quarto Privado,4,1.0,1.0,,,-22.97914046795879,-43.19189214292715,4.5,2,f,4,Médio (3-4)
721756841191706111,Nice apartment 550m from the beach,Copacabana,Casa/Apto Inteiro,6,1.0,1.0,266.0,Baixo,-22.972347,-43.1912446,4.66,93,f,2,Grande (5+)
1222620758347021399,Loft Silencioso em Copacabana,Copacabana,Casa/Apto Inteiro,3,1.0,1.0,211.0,Baixo,-22.96979,-43.18798,0.0,0,f,3,Médio (3-4)
1420535042495036775,SUH Botafogo 08  Metro Compact,Botafogo,Casa/Apto Inteiro,2,1.0,1.0,188.0,Baixo,-22.9497455,-43.1824266,5.0,1,f,1,Pequeno (1-2)
1397046466921982231,Studio Incrível e Formidável no coração do RJ!,Jardim Botânico,Casa/Apto Inteiro,2,1.0,1.0,574.0,Médio,-22.96223,-43.21592,0.0,0,f,1,Pequeno (1-2)
1147687807943656749,Estilo e Conforto Rio de Janeiro Botafogo Zona Sul,Botafogo,Casa/Apto Inteiro,5,1.0,1.0,173.0,Baixo,-22.94644,-43.18227,4.89,71,t,2,Grande (5+)
861447543412725923,Suíte nascer do sol 2,Campo Grande,Quarto Privado,4,1.0,1.0,,,-22.859166393636503,-43.52191635522485,0.0,0,f,1,Médio (3-4)
1445717423252609327,Flat Quarto/Sala Barra Olímpica,Camorim,Casa/Apto Inteiro,4,1.0,1.0,197.0,Baixo,-22.9795,-43.42206,5.0,1,t,2,Médio (3-4)
1441452077304683954,Loft moderno e confortável em Copacabana!,Copacabana,Casa/Apto Inteiro,4,0.0,1.0,222.0,Baixo,-22.9645681,-43.1775252,5.0,2,t,2,Médio (3-4)
1384707027620563758,"Loft  Copacabana vista  Cristo,  próximo praia",Copacabana,Casa/Apto Inteiro,4,1.0,1.0,,,-22.967125767130494,-43.18715698147583,5.0,4,f,2,Médio (3-4)
906677665338801113,Beach | Swimmingpool | Garage | wifi | 24h Safe,Copacabana,Casa/Apto Inteiro,4,2.0,2.0,295.0,Baixo,-22.984341075084764,-43.19129895418882,4.76,41,t,3,Médio (3-4)
46541258,"Apartamento simples, mas acolhedor. Metrô próximo.",Glória,Casa/Apto Inteiro,2,1.0,1.5,260.0,Baixo,-22.92085,-43.18018,5.0,2,f,2,Pequeno (1-2)
1299096669522639797,Casinha na árvore Jardim Guanabara,Jardim Guanabara,Casa/Apto Inteiro,2,1.0,1.0,174.0,Baixo,-22.811307096813465,-43.20104085265511,4.83,35,t,1,Pequeno (1-2)
9583826,Aptm on top Copacabana (Morro Babilonia),Copacabana,Casa/Apto Inteiro,2,1.0,1.0,135.0,Muito Baixo,-22.96149,-43.17251,4.83,134,f,2,Pequeno (1-2)
691167374982023902,Apartamento na Barra da Tijuca,Barra da Tijuca,Casa/Apto Inteiro,4,1.0,1.0,679.0,Médio,-23.01259,-43.38647,0.0,0,t,2,Médio (3-4)
1365253279543158615,Pérola do Porto a 10Km da Praia de Copacabana,Santo Cristo,Casa/Apto Inteiro,4,1.0,1.0,209.0,Baixo,-22.90183,-43.20703,5.0,1,f,2,Médio (3-4)
38260905,Apê em Copacabana!   Perto da praia e do metrô,Copacabana,Quarto Privado,4,1.0,1.5,250.0,Baixo,-22.98349,-43.19492,4.67,6,f,2,Médio (3-4)
1007919613253223712,12metros da Praia Lazer Completo,Barra da Tijuca,Casa/Apto Inteiro,5,2.0,2.0,360.0,Médio-Baixo,-23.010617547144754,-43.33052231349882,5.0,43,t,2,Grande (5+)
902238496784952631,Apartamento lindo e confortável,Laranjeiras,Casa/Apto Inteiro,2,1.0,1.5,803.0,Médio,-22.93250898011841,-43.187601837430776,5.0,1,t,1,Pequeno (1-2)
1088587897267506042,Lapa Centro RJ Pça Pres Aguirre Cerda 47 Studio,Centro,Casa/Apto Inteiro,2,1.0,1.0,131.0,Muito Baixo,-22.91798438791072,-43.18767009552128,5.0,5,t,5,Pequeno (1-2)
1269838815459040153,Apto aconchegante  (com garagem),Botafogo,Casa/Apto Inteiro,4,2.0,1.5,458.0,Médio-Baixo,-22.95243337901427,-43.17703898996115,5.0,6,f,3,Médio (3-4)
1039781823066760633,Casa Luxo Recreio 5 min da praia. Cond. Fechado,Vargem Grande,Casa/Apto Inteiro,8,3.0,6.5,2125.0,Alto,-23.0171586,-43.5040597,0.0,0,f,4,Grande (5+)
1103019701059653399,Apê Glória *Pertinho do Metrô e Pontos Turísticos!,Santa Teresa,Casa/Apto Inteiro,4,1.0,1.0,266.0,Baixo,-22.919455845391223,-43.17891054232789,4.75,4,f,3,Médio (3-4)
1341238513567112264,Studio Completo Centro | 1509,Centro,Casa/Apto Inteiro,4,1.0,1.0,203.0,Baixo,-22.90665207702186,-43.19057025377323,4.9,20,t,1,Médio (3-4)
782812824482925609,Alugue quarto e banheiro Barra exclusivos,Barra da Tijuca,Quarto Privado,2,1.0,4.5,271.0,Baixo,-23.0048201,-43.3229968,4.97,98,t,1,Pequeno (1-2)
2011809,"""The Coral Penthouse"" w/360° | Beach | AC All Rm",Copacabana,Casa/Apto Inteiro,14,7.0,4.0,4535.0,Alto,-22.9682933,-43.1855429,4.95,155,t,2,Grande (5+)
957771236488125846,Bedroom 2 suite with view of Pedra de Itauna Barra,Barra da Tijuca,Quarto Privado,2,1.0,1.0,99.0,Muito Baixo,-23.01064,-43.42324,4.64,14,f,1,Pequeno (1-2)
566475552158029034,Residence Rio Stay Townhouse Flat Hotel Riocentro,Camorim,Casa/Apto Inteiro,2,1.0,1.0,1607.0,Médio-Alto,-22.97612,-43.41549,4.0,1,f,3,Pequeno (1-2)
587685231575996213,Junto a copacabana e  ipanema,Copacabana,Casa/Apto Inteiro,2,1.0,2.0,380.0,Médio-Baixo,-22.98178,-43.19204,5.0,7,f,3,Pequeno (1-2)
789696530288356089,Apartamento em Copacabana. Confira e Descanse!,Copacabana,Casa/Apto Inteiro,6,2.0,2.0,386.0,Médio-Baixo,-22.967763630196803,-43.181219064556885,4.78,9,f,2,Grande (5+)
1049593734347512824,Flat equipado Copacabana Babi J,Copacabana,Casa/Apto Inteiro,3,1.0,1.0,300.0,Baixo,-22.959780043024804,-43.17421502967064,5.0,4,f,1,Médio (3-4)
1397829682580317763,Private Room with A/C Private Bathroom – Comfort.,Copacabana,Quarto Privado,2,1.0,1.0,111.0,Muito Baixo,-22.96465,-43.18006,4.77,13,f,1,Pequeno (1-2)
697018310346569100,Apartamento na quadra da praia,Copacabana,Casa/Apto Inteiro,3,1.0,1.0,190.0,Baixo,-22.96522,-43.17757,4.98,52,t,1,Médio (3-4)
685688531102744179,Hidro & Varanda 100 m praia Maison Copa Prime,Copacabana,Casa/Apto Inteiro,6,2.0,2.0,470.0,Médio-Baixo,-22.9702977,-43.1842036,4.98,45,t,3,Grande (5+)
1405070920866312031,Apartamento para o Réveillon,Copacabana,Casa/Apto Inteiro,5,2.0,2.0,700.0,Médio,-22.96333105743605,-43.17597598893865,0.0,0,t,1,Grande (5+)
882608716247695749,Ipanema Sol & Mar Residence,Ipanema,Casa/Apto Inteiro,8,3.0,3.0,1000.0,Médio,-22.98451683922096,-43.20300636671877,4.97,32,f,2,Grande (5+)
17528447,Excelente apt pertinho do mar posto2 Copacabana,Copacabana,Casa/Apto Inteiro,4,1.0,1.0,220.0,Baixo,-22.96598,-43.17516,4.69,45,t,4,Médio (3-4)
1041126308692024528,Quarto aconchegante em Santa Teresa para Revellon,Santa Teresa,Quarto Privado,2,1.0,1.0,200.0,Baixo,-22.9194648,-43.1879724,5.0,1,f,2,Pequeno (1-2)
1248377586502906090,Sol do recreio,Recreio dos Bandeirantes,Casa/Apto Inteiro,3,1.0,1.0,170.0,Baixo,-23.0278652,-43.4725433,5.0,6,t,1,Médio (3-4)
895063444872163163,Majestoso Flat em Ipanema,Ipanema,Casa/Apto Inteiro,4,1.0,1.0,449.0,Médio-Baixo,-22.98675,-43.19469,4.79,62,f,3,Médio (3-4)
1035857736476519089,"CurtaIpanema: Studio lindo, equipado, 2 qds praia.",Ipanema,Casa/Apto Inteiro,4,0.0,1.0,406.0,Médio-Baixo,-22.98481,-43.19896,4.94,32,t,2,Médio (3-4)
53212838,"Mary Schorr- Suíte ampla, banro privat. cama casal",Copacabana,Quarto Privado,2,1.0,1.0,297.0,Baixo,-22.98223,-43.19137,4.87,15,t,3,Pequeno (1-2)
1303177726296451680,Apt. 5 min da praia em Copacabana,Copacabana,Casa/Apto Inteiro,6,2.0,2.0,456.0,Médio-Baixo,-22.974756577581363,-43.18744434922906,4.81,26,t,1,Grande (5+)
1409677054837812429,Lady G na casa grande 3 Beliches,Santa Teresa,Quarto Compartilhado,3,1.0,2.0,410.0,Médio-Baixo,-22.9233,-43.18977,0.0,0,f,1,Médio (3-4)
1425012902969232669,Sweet home 76 pet friendly,Botafogo,Quarto Privado,3,1.0,1.0,380.0,Médio-Baixo,-22.9523228529298,-43.177459090948105,0.0,0,f,3,Médio (3-4)
45783740,Wealth da Barra - Acolhedor e Afetuoso,Jacarepaguá,Casa/Apto Inteiro,5,2.0,1.0,428.0,Médio-Baixo,-22.96962,-43.39258,5.0,1,f,1,Grande (5+)
1051425639168568593,Espaço inteiro: Charmoso Apartamento no Centro,Gamboa,Casa/Apto Inteiro,5,2.0,1.0,227.0,Baixo,-22.89866,-43.19572,4.88,8,f,1,Grande (5+)
1345610015207035967,Beleza e aconchego.,Lagoa,Casa/Apto Inteiro,2,1.0,2.0,800.0,Médio,-22.9725559,-43.2038961,5.0,3,f,2,Pequeno (1-2)
1308146021260884085,Spacious King Bed Ensuite in Santa Teresa,Santa Teresa,Quarto Privado,2,1.0,1.0,148.0,Baixo,-22.91657,-43.18321,5.0,3,f,2,Pequeno (1-2)
1350961649727578635,Copacabana esquina da praia,Copacabana,Casa/Apto Inteiro,4,1.0,1.0,203.0,Baixo,-22.96496391093558,-43.17427061498165,4.93,42,t,1,Médio (3-4)
1205783907044046334,Cozy & Big 3bed a few blocks from Copacabana Beach,Copacabana,Casa/Apto Inteiro,6,3.0,2.0,584.0,Médio,-22.9777616,-43.19104069999999,5.0,18,t,3,Grande (5+)
689138490249111577,Localização privilegiada em bairro charmoso,Botafogo,Casa/Apto Inteiro,6,2.0,1.0,188.0,Baixo,-22.95408,-43.19455,4.64,91,f,1,Grande (5+)
1242763654833484533,Casa perto da praia,Catete,Casa/Apto Inteiro,5,1.0,1.0,183.0,Baixo,-22.9226389,-43.180789,5.0,2,f,1,Grande (5+)
1418948708154302294,grande chambre à salle de bain,Flamengo,Quarto Privado,2,1.0,0.5,279.0,Baixo,-22.931766817631512,-43.17459985613823,0.0,0,f,1,Pequeno (1-2)
1144168573091990270,Um Paraíso sobre as ondas.,Barra da Tijuca,Casa/Apto Inteiro,2,1.0,1.0,800.0,Médio,-23.00954,-43.35496,5.0,2,f,3,Pequeno (1-2)
976183785896744649,Copacabana_simples_Wifi_praia_ar,Copacabana,Casa/Apto Inteiro,4,1.0,1.0,199.0,Baixo,-22.9807236,-43.1912274,4.74,23,f,3,Médio (3-4)
1379851924261130679,Apto inteiro/casa do marinheiro/advec/ ciaa/UFRJ,Penha,Casa/Apto Inteiro,3,1.0,1.0,145.0,Baixo,-22.832907851575005,-43.27634859435653,5.0,7,f,2,Médio (3-4)
40913521,Apt sea view a few steps from the beach,Copacabana,Casa/Apto Inteiro,4,1.0,1.0,327.0,Médio-Baixo,-22.969835,-43.183781,4.9,41,t,1,Médio (3-4)
46088668,Forest View Arpoador,Ipanema,Casa/Apto Inteiro,4,1.0,1.0,327.0,Médio-Baixo,-22.98806,-43.19146,4.65,94,,1,Médio (3-4)
1426153550512171242,Seu Cantinho em Copa | WiFi + Praia + Conforto 810,Copacabana,Casa/Apto Inteiro,5,1.0,1.0,318.0,Médio-Baixo,-22.97575738464519,-43.18799941812306,0.0,0,f,1,Grande (5+)
1348607550900909183,Excelente apartamento,Barra da Tijuca,Casa/Apto Inteiro,2,1.0,1.0,336.0,Médio-Baixo,-23.0099296,-43.3562518,5.0,1,f,4,Pequeno (1-2)
1306002074346948963,Casa Bucólica LAGOA E MAR Barra,Itanhangá,Casa/Apto Inteiro,10,2.0,2.0,304.0,Baixo,-22.997196,-43.3132259,0.0,0,f,3,Grande (5+)
1244317316137646104,Rio Stay - Parque Olimpico,Camorim,Casa/Apto Inteiro,2,1.0,1.0,306.0,Baixo,-22.97635681666983,-43.41368274246916,0.0,0,f,1,Pequeno (1-2)
12797036,"Apartment in Botafogo, near everything",Botafogo,Casa/Apto Inteiro,2,1.0,1.0,203.0,Baixo,-22.95679,-43.17931,4.84,37,t,1,Pequeno (1-2)
34077806,Apart-Hotel à Beira Mar no Recreio (Pontal) | 222,Recreio dos Bandeirantes,Casa/Apto Inteiro,4,1.0,1.0,379.0,Médio-Baixo,-23.03054,-43.47603,4.42,33,f,2,Médio (3-4)
4386062,MY DAUGHTER's COZY BEDROOM,Santa Teresa,Quarto Privado,2,1.0,1.0,104.0,Muito Baixo,-22.9237,-43.18285,4.92,88,t,2,Pequeno (1-2)
760174181724356981,M&M House 4,Jardim Botânico,Casa/Apto Inteiro,5,1.0,1.0,290.0,Baixo,-22.96487,-43.21996,4.78,9,f,1,Grande (5+)
815818403919049563,Cobertura duplex Frente Mar - Barra da Tijuca,Barra da Tijuca,Casa/Apto Inteiro,6,3.0,2.0,1645.0,Médio-Alto,-23.0098718,-43.3647994,4.5,2,f,3,Grande (5+)
1297185612838642013,"Aconchego, Moderno e Confortável",Barra da Tijuca,Casa/Apto Inteiro,5,3.0,1.0,,,-23.01481709451848,-43.44497423619032,4.0,1,f,3,Grande (5+)
9110002,Aconchegante Mansão no Malibu | Aluguel Anual!,Barra da Tijuca,Casa/Apto Inteiro,12,5.0,7.0,600.0,Médio,-23.00178,-43.39737,0.0,0,,365,Grande (5+)
1047027382176525675,Réveillon 2 A/C - Praia da Barra,Barra da Tijuca,Casa/Apto Inteiro,4,1.0,1.0,599.0,Médio,-23.00855,-43.34582,0.0,0,f,5,Médio (3-4)
816262650520545015,Super opção Copa – Quarto/Sala,Copacabana,Casa/Apto Inteiro,4,1.0,1.0,,,-22.97450136383716,-43.192260583174594,0.0,0,f,3,Médio (3-4)
768699384509804948,Vista Pão de Açucar (Ar Condicionado Novo).,Botafogo,Casa/Apto Inteiro,4,1.0,1.0,,,-22.9458143127688,-43.18262066692114,4.82,79,t,365,Médio (3-4)
7602966,Copacabana-  Flat 2Qts-  melhor ponto,Copacabana,Casa/Apto Inteiro,6,2.0,2.0,490.0,Médio-Baixo,-22.97403907775879,-43.19276809692383,4.65,20,t,2,Grande (5+)
954422987969741522,Charming House in Humaitá/Lagoa,Humaitá,Quarto Privado,2,1.0,1.0,222.0,Baixo,-22.955972937049097,-43.20146419107914,0.0,0,f,3,Pequeno (1-2)
806049880600692091,Mediterraneo Barra Fantastico,Barra da Tijuca,Casa/Apto Inteiro,2,1.0,1.0,297.0,Baixo,-23.00295,-43.34291,4.57,7,f,2,Pequeno (1-2)
32788135,Casa no recreio com piscina privativa.,Recreio dos Bandeirantes,Casa/Apto Inteiro,10,4.0,0.0,2813.0,Alto,-23.02239,-43.52039,5.0,2,f,5,Grande (5+)
1141465243100438496,Quarto perto da praia Copacabana,Copacabana,Quarto Privado,2,1.0,1.0,,,-22.97558,-43.19058709999999,5.0,5,f,2,Pequeno (1-2)
878180261620910854,Maravilhosa vista de Ipanema da varanda 2 suites,Ipanema,Casa/Apto Inteiro,4,2.0,2.0,1115.0,Médio-Alto,-22.98468,-43.20078,5.0,1,f,3,Médio (3-4)
53432852,Casa proximo a praia do Recreio,Recreio dos Bandeirantes,Casa/Apto Inteiro,6,3.0,1.5,359.0,Médio-Baixo,-23.03199,-43.4887,0.0,0,f,2,Grande (5+)
41642896,APT em andar ELEVADO50m até a PRAIA DE COPACABANA,Copacabana,Casa/Apto Inteiro,4,1.0,1.0,190.0,Baixo,-22.96739,-43.18138,5.0,2,f,4,Médio (3-4)
32584218,3 bedrooms more 1 of service at Ipanema,Ipanema,Casa/Apto Inteiro,6,3.0,2.5,624.0,Médio,-22.98122,-43.19825,0.0,0,f,4,Grande (5+)
1445949394627562677,Quarto no hotel  Nacional,São Conrado,Quarto Privado,4,1.0,0.5,571.0,Médio,-22.9980396,-43.2568208,0.0,0,f,1,Médio (3-4)
30167675,Apartamento na Barra da Tijuca,Barra da Tijuca,Casa/Apto Inteiro,4,2.0,2.0,362.0,Médio-Baixo,-23.00978,-43.43652,5.0,2,f,5,Médio (3-4)
40842490,Excelente Apartamento Frente Praia Sala 2 Quartos,Barra da Tijuca,Casa/Apto Inteiro,5,2.0,2.0,465.0,Médio-Baixo,-23.010518107177884,-43.33057641983032,4.91,160,t,3,Grande (5+)
650649325871522237,The best view of Copacabana,Copacabana,Quarto Privado,2,1.0,2.0,280.0,Baixo,-22.9682657,-43.1809782,5.0,7,f,3,Pequeno (1-2)
1073377354586937563,casa com piscina e churrasqueira,Vargem Pequena,Casa/Apto Inteiro,10,3.0,1.5,334.0,Médio-Baixo,-22.991203423204663,-43.43488521616628,5.0,1,f,2,Grande (5+)
2598991,Copa do mundo - 1km do Maracanã,São Francisco Xavier,Casa/Apto Inteiro,6,2.0,2.0,1300.0,Médio-Alto,-22.90704,-43.23946,0.0,0,f,1,Grande (5+)
1278255690277057323,Aluguel de Quarto em Laranjeiras,Laranjeiras,Quarto Privado,2,1.0,1.0,1800.0,Médio-Alto,-22.93179666454972,-43.19049569771536,0.0,0,f,1,Pequeno (1-2)
1353227946708721891,Apartamento confortável,Catumbi,Quarto Privado,2,1.0,1.0,450.0,Médio-Baixo,-22.92526,-43.19812,5.0,1,f,1,Pequeno (1-2)
1298820927861078009,espaço aconchegante,Copacabana,Casa/Apto Inteiro,2,1.0,1.0,,,-22.9696849,-43.1855841,0.0,0,f,1,Pequeno (1-2)
38509433,Quarto charmoso no coração de Copacabana,Copacabana,Quarto Privado,2,1.0,1.5,135.0,Muito Baixo,-22.96693,-43.18353,4.88,121,t,3,Pequeno (1-2)
48250276,"Confortavel, Bem Localizado. Entre a Praia e Metrô",Flamengo,Casa/Apto Inteiro,4,1.0,1.0,,,-22.92992,-43.17579,5.0,9,t,7,Médio (3-4)
1289704627722498344,Residencial Cidade Jardim Barra da Tijuca l Arenas,Jacarepaguá,Casa/Apto Inteiro,5,2.0,2.0,557.0,Médio-Baixo,-22.9654105,-43.3843205,4.92,13,t,1,Grande (5+)
1151298225072732621,Copacabana Posto 5,Copacabana,Casa/Apto Inteiro,6,2.0,1.0,400.0,Médio-Baixo,-22.97906,-43.19174,4.58,12,f,3,Grande (5+)
809591325049093580,Flamengo 600 aterro 200metrô apt varanda suite,Flamengo,Casa/Apto Inteiro,3,1.0,1.0,464.0,Médio-Baixo,-22.93049846753489,-43.17704229698823,5.0,1,f,1,Médio (3-4)
987077422640769521,Cobertura no Recreio,Recreio dos Bandeirantes,Casa/Apto Inteiro,4,2.0,3.0,740.0,Médio,-23.0176029,-43.4823466,4.97,31,f,2,Médio (3-4)
1305932380556775912,Comfort 404 Apart Ipanema Beach,Ipanema,Casa/Apto Inteiro,6,1.0,1.0,354.0,Médio-Baixo,-22.9858491,-43.1947479,5.0,1,f,1,Grande (5+)
30783346,"Ótimo apt Copacabana, 20 metros da praia",Copacabana,Casa/Apto Inteiro,6,3.0,2.0,565.0,Médio,-22.97062,-43.18219,4.92,12,f,1,Grande (5+)
13805754,Casa em condomínio fechado,Vargem Pequena,Casa/Apto Inteiro,4,1.0,1.0,4397.0,Alto,-22.98806,-43.47761,0.0,0,f,1,Médio (3-4)
4488424,Very Cozy Apartment,Leblon,Casa/Apto Inteiro,4,2.0,1.0,,,-22.98161,-43.22052,5.0,7,f,3,Médio (3-4)
6644513,Worderfull Flat with 02 double beds,Barra da Tijuca,Casa/Apto Inteiro,4,2.0,1.0,,,-22.9861,-43.35846,5.0,2,f,7,Médio (3-4)
37744041,Ape do Chefe,Copacabana,Casa/Apto Inteiro,4,1.0,1.0,208.0,Baixo,-22.98323,-43.18998,4.82,114,t,2,Médio (3-4)
13669485,Carnaval Río - Qto Individual Perto Praia Recreio,Recreio dos Bandeirantes,Quarto Privado,1,1.0,1.0,158.0,Baixo,-23.01273,-43.45264,5.0,3,f,1,Pequeno (1-2)
1344447169487345957,Casa - Engenho de Dentro,Engenho de Dentro,Casa/Apto Inteiro,4,1.0,1.0,328.0,Médio-Baixo,-22.909023,-43.29563,5.0,1,f,1,Médio (3-4)
600884195760619334,Lovely studio-apartment Leme/Copacabana beach,Leme,Casa/Apto Inteiro,3,1.0,1.0,209.0,Baixo,-22.96157,-43.17079,4.79,141,f,2,Médio (3-4)
1318102604912489902,Apartamento pertinho da praia,Barra da Tijuca,Casa/Apto Inteiro,4,1.0,1.0,500.0,Médio-Baixo,-23.0045,-43.32922,0.0,0,t,2,Médio (3-4)
1070247316577138905,Venha Curtir suas férias no Rio!,Centro,Casa/Apto Inteiro,4,1.0,1.0,277.0,Baixo,-22.9115838,-43.1768812,5.0,9,f,2,Médio (3-4)
3063958,Moderno 2 quartos em Copacabana,Copacabana,Casa/Apto Inteiro,4,2.0,1.0,1215.0,Médio-Alto,-22.97316,-43.18783,5.0,1,f,4,Médio (3-4)
793408124303985983,Apartamento São Conrado Vista Mar,São Conrado,Casa/Apto Inteiro,4,2.0,1.0,,,-22.9992403,-43.2662976,4.85,62,f,2,Médio (3-4)
1156444363483731413,Melhor localização de Copacabana,Copacabana,Casa/Apto Inteiro,12,1.0,1.0,2526.0,Alto,-22.97696,-43.1887,5.0,1,t,1,Grande (5+)
1227298016522527762,Apartamento aconchegante e um clube sensacional.,Camorim,Casa/Apto Inteiro,5,2.0,1.0,,,-22.98492,-43.42694,5.0,2,f,2,Grande (5+)
23177500,Vá andando para os lugares mais lindos da cidade.,Botafogo,Casa/Apto Inteiro,3,2.0,1.5,674.0,Médio,-22.95307,-43.17763,4.77,13,f,3,Médio (3-4)
1239862716861996376,Casa Deusa Copanema,Copacabana,Casa/Apto Inteiro,8,3.0,2.0,381.0,Médio-Baixo,-22.9857456,-43.191038,4.76,25,t,2,Grande (5+)
12867670,"2 Bedrooms Apartment, Tijuca",Vila Isabel,Casa/Apto Inteiro,3,2.0,2.0,300.0,Baixo,-22.92345,-43.23755,4.77,44,f,1,Médio (3-4)
786877984915208757,"Excelente Loft na Barra da Tijuca, RJ",Barra da Tijuca,Casa/Apto Inteiro,2,1.0,1.5,495.0,Médio-Baixo,-23.00125,-43.42183,4.8,10,f,3,Pequeno (1-2)
13218264,Charmoso loft em Santa Teresa,Santa Teresa,Casa/Apto Inteiro,6,2.0,1.0,2254.0,Alto,-22.92061,-43.18942,0.0,0,f,4,Grande (5+)
40472244,Copacabana e Leme: a melhor localização,Copacabana,Casa/Apto Inteiro,4,0.0,1.0,150.0,Baixo,-22.96543,-43.17543,4.84,158,f,2,Médio (3-4)
1168197346156202895,Localização Prime no Leblon,Leblon,Casa/Apto Inteiro,4,1.0,2.0,588.0,Médio,-22.984680611451736,-43.222096463019305,5.0,26,t,5,Médio (3-4)
562354294164321205,Cobertura magnífica na Barra da Tijuca,Barra da Tijuca,Casa/Apto Inteiro,3,1.0,1.0,1200.0,Médio-Alto,-23.00221,-43.3727,4.95,20,f,2,Médio (3-4)
53724691,Arena.Park_Passeios_2,Jacarepaguá,Casa/Apto Inteiro,5,2.0,2.0,329.0,Médio-Baixo,-22.95848,-43.37638,3.5,2,f,1,Grande (5+)
1049346139516039208,5 minutes from Leblon Beach | Ap302,Leblon,Casa/Apto Inteiro,4,2.0,2.0,639.0,Médio,-22.98689071405444,-43.22795246334201,4.48,33,f,1,Médio (3-4)
52351629,Apartamento posto 6 com 3 Quartos e perto da praia,Copacabana,Casa/Apto Inteiro,6,3.0,2.0,450.0,Médio-Baixo,-22.98415,-43.19267,4.92,51,t,5,Grande (5+)
1358838908962910574,Apartamento próximo a praia,Jacarepaguá,Casa/Apto Inteiro,6,2.0,2.0,242.0,Baixo,-22.971898799703727,-43.35571671098826,5.0,4,f,1,Grande (5+)
1262990220275885715,Moderno e bem localizado,Ipanema,Casa/Apto Inteiro,4,2.0,2.0,800.0,Médio,-22.9849505,-43.2063018,5.0,1,f,3,Médio (3-4)
1229981912555665475,Apartamento Recreio 200m da praia,Recreio dos Bandeirantes,Casa/Apto Inteiro,4,1.0,1.0,152.0,Baixo,-23.0292864,-43.4725459,4.75,4,f,2,Médio (3-4)
1065384092312684683,Ent. house f/ 2 | heart Botafogo,Botafogo,Casa/Apto Inteiro,2,1.0,1.0,173.0,Baixo,-22.94872598506509,-43.18934719310327,4.72,18,f,2,Pequeno (1-2)
53723216,Cobertura 2 quartos em Copacabana - perto da praia,Copacabana,Casa/Apto Inteiro,5,2.0,2.0,1000.0,Médio,-22.97674,-43.19418,5.0,1,f,5,Grande (5+)
706474068282232390,Apartamento Recreio dos Bandeirantes,Recreio dos Bandeirantes,Quarto Privado,3,1.0,1.0,4109.0,Alto,-23.003729,-43.44753679999999,5.0,3,f,2,Médio (3-4)
1405553345245338686,apartamento quarto otimo para relaxar,Vila Militar,Quarto Privado,3,1.0,1.0,108.0,Muito Baixo,-22.88322427486925,-43.407399880248896,4.0,1,f,2,Médio (3-4)
1053454808199149289,Leblon - Studio aconchegante,Leblon,Casa/Apto Inteiro,3,1.0,1.0,475.0,Médio-Baixo,-22.98152789972368,-43.22318629591464,4.95,21,t,2,Médio (3-4)
1013203368763110940,Apartamento uma quadra da praia,Ipanema,Casa/Apto Inteiro,3,1.0,1.0,1500.0,Médio-Alto,-22.983701076475302,-43.19979433159032,4.67,6,f,3,Médio (3-4)
1439821133205101127,Copacabana near the beach C124,Copacabana,Casa/Apto Inteiro,4,2.0,1.5,331.0,Médio-Baixo,-22.97257,-43.18709,5.0,1,f,2,Médio (3-4)
38781150,View sea Copa - 4 Ensuites High Level,Copacabana,Casa/Apto Inteiro,10,4.0,4.5,1842.0,Alto,-22.9651,-43.17684,4.6,5,f,3,Grande (5+)
39113460,Ipanema Conforto e Segurança Frente Mar,Ipanema,Casa/Apto Inteiro,7,3.0,2.5,1221.0,Médio-Alto,-22.98587,-43.1988,5.0,2,f,20,Grande (5+)
977609706709801396,Mansão Exclusiva Com Elevador!,Joá,Casa/Apto Inteiro,14,5.0,5.0,5005.0,Alto,-23.0087321599749,-43.29222783153567,0.0,0,,3,Grande (5+)
34357259,Quarto quádruplo sem banheiro,Ipanema,Quarto Privado,4,1.0,1.0,562.0,Médio,-22.98431,-43.20161,5.0,1,f,1,Médio (3-4)
1073971821287333616,Suíte apartamento em Ipanema.,Ipanema,Casa/Apto Inteiro,2,1.0,2.0,540.0,Médio-Baixo,-22.9839068,-43.1950884,0.0,0,f,1,Pequeno (1-2)
1168198860094587129,Apartamento Aconchego,Laranjeiras,Quarto Privado,2,0.0,1.0,186.0,Baixo,-22.93567492175909,-43.1797843648343,5.0,2,f,3,Pequeno (1-2)
1191217542381146535,"Studio completo e charmoso, no Centro do Rio",Centro,Casa/Apto Inteiro,2,1.0,1.0,130.0,Muito Baixo,-22.90902576964814,-43.17828265083591,4.96,23,t,3,Pequeno (1-2)
1406645857491059819,Cama apê comp. tipo hostel bom,Copacabana,Quarto Compartilhado,2,1.0,1.0,96.0,Muito Baixo,-22.9758,-43.19067,0.0,0,f,2,Pequeno (1-2)
1632682,Ipanema-EXCELLENT APARTMENT 2 bedrooms/garage,Ipanema,Casa/Apto Inteiro,4,2.0,1.0,585.0,Médio,-22.98335,-43.19819,4.85,151,,2,Médio (3-4)
791327961249511040,Apartamento en Copacabana,Copacabana,Casa/Apto Inteiro,4,2.0,0.5,730.0,Médio,-22.9765426,-43.1900775,4.75,8,f,4,Médio (3-4)
27293778,Cosme Velho vue imprenable sur le Corcovado,Cosme Velho,Casa/Apto Inteiro,3,2.0,2.0,861.0,Médio,-22.94213,-43.19687,5.0,2,f,3,Médio (3-4)
1405724304535094230,Mimoso Copacabana,Copacabana,Quarto Privado,2,1.0,1.0,198.0,Baixo,-22.96689,-43.18314,0.0,0,f,1,Pequeno (1-2)
1420488426418894867,Brisa Carioca Rio2-Recreio Praia,Recreio dos Bandeirantes,Casa/Apto Inteiro,7,1.0,1.0,94.0,Muito Baixo,-23.0289672,-43.4721305,0.0,0,f,1,Grande (5+)
1022540983383081022,Apartamento com vista verde,Botafogo,Casa/Apto Inteiro,3,2.0,1.0,520.0,Médio-Baixo,-22.94055021479525,-43.182426664556885,4.8,5,f,1,Médio (3-4)
1366953040495416405,Apartamento a 3 min da Praia NSC1145-908,Copacabana,Casa/Apto Inteiro,4,1.0,1.0,220.0,Baixo,-22.9805431346711,-43.190954611045065,4.88,8,f,1,Médio (3-4)
7563022,Excelente quarto de duas camas,Copacabana,Quarto Privado,2,1.0,1.0,,,-22.96601,-43.17979,5.0,4,t,4,Pequeno (1-2)
10733116,Great House with 4 bedrooms and garage,Barra da Tijuca,Casa/Apto Inteiro,9,4.0,5.5,1800.0,Médio-Alto,-22.99893,-43.39525,4.75,4,f,5,Grande (5+)
2081532,Nice view 2 bedrooms in  Gávea,Gávea,Casa/Apto Inteiro,4,2.0,1.5,177.0,Baixo,-22.97275,-43.2271,4.83,12,f,630,Médio (3-4)
2769635,Bucólico apto. 1 quarto,Copacabana,Casa/Apto Inteiro,3,1.0,1.0,350.0,Médio-Baixo,-22.96539,-43.19202,4.75,12,f,2,Médio (3-4)
585214941972240950,Quarto da Baronesa • Seguro e acolhedor,Flamengo,Quarto Privado,3,1.0,1.0,126.0,Muito Baixo,-22.9387277,-43.1722445,4.99,85,t,2,Médio (3-4)
1108655040361661449,Penthouse with Unbeatable Christ Views and BBQ,Copacabana,Casa/Apto Inteiro,5,3.0,2.5,492.0,Médio-Baixo,-22.96667710526618,-43.18762283301885,4.95,22,,3,Grande (5+)
691889588625909310,Incredible sea view in Luxury apartment B11-009,Barra da Tijuca,Casa/Apto Inteiro,5,2.0,2.0,1055.0,Médio,-23.01114,-43.36577,4.78,9,f,3,Grande (5+)
1213063773014650163,Apto quarto e sala com piscina!,Centro,Casa/Apto Inteiro,3,1.0,1.0,184.0,Baixo,-22.91528,-43.18814,5.0,11,t,1,Médio (3-4)
1577986,Beautiful 3 Bedroons in Copacabana,Copacabana,Casa/Apto Inteiro,5,3.0,2.5,429.0,Médio-Baixo,-22.975,-43.18895,4.91,94,t,4,Grande (5+)
1412260146937224509,Excelente AP em Ipanema Lady Gag,Ipanema,Casa/Apto Inteiro,5,2.0,1.5,960.0,Médio,-22.9812048,-43.1989515,0.0,0,f,3,Grande (5+)
1307883013171373553,Hotel Nacional - Rio de Janeiro,Vidigal,Quarto Privado,4,1.0,1.0,,,-22.9977765,-43.2395718,0.0,0,f,1,Médio (3-4)
1197045274480715566,No coração de Botafogo,Botafogo,Casa/Apto Inteiro,4,2.0,2.0,290.0,Baixo,-22.94994826994702,-43.186181600000005,5.0,9,t,2,Médio (3-4)
1369495792014176778,Quarto e sala charmoso Humaitá,Humaitá,Casa/Apto Inteiro,4,1.0,1.0,400.0,Médio-Baixo,-22.95492,-43.19715,5.0,2,f,1,Médio (3-4)
3644238,"A5-Estúdio Copacabana Posto 6, near Ipanema",Copacabana,Casa/Apto Inteiro,2,1.0,1.0,,,-22.98553,-43.19146,4.95,138,t,5,Pequeno (1-2)
1387293807727604030,Ap Aconchego Botafogo,Botafogo,Casa/Apto Inteiro,5,2.0,1.0,158.0,Baixo,-22.958526669310963,-43.18457666784525,4.17,6,f,2,Grande (5+)
645735149277722671,Flat  Barra da Tijuca - na praia,Barra da Tijuca,Casa/Apto Inteiro,2,1.0,2.0,433.0,Médio-Baixo,-23.011894311658043,-43.32037700323605,4.89,18,t,5,Pequeno (1-2)
787418123155351544,Copacabana frente beach Leme banheiro quarto sol2,Leme,Quarto Privado,2,1.0,1.0,257.0,Baixo,-22.96076,-43.16734,4.7,10,f,1,Pequeno (1-2)
1315363000659366944,Ótimo apartamento no Leblon!,Leblon,Casa/Apto Inteiro,4,2.0,2.0,503.0,Médio-Baixo,-22.9805794,-43.2235762,0.0,0,f,2,Médio (3-4)
1326294500077361789,Jóia em Copacabana.,Copacabana,Casa/Apto Inteiro,3,1.0,1.0,343.0,Médio-Baixo,-22.97628,-43.18902,5.0,3,t,3,Médio (3-4)
1410852080547032432,Apto Top na Lapa.,Centro,Casa/Apto Inteiro,3,1.0,1.0,135.0,Muito Baixo,-22.913212565466026,-43.1903675571084,4.75,8,t,5,Médio (3-4)
1082500445820679001,Quarto para 2 em casa - Santa Teresa,Santa Teresa,Quarto Privado,2,1.0,0.5,250.0,Baixo,-22.918583398096583,-43.18523622273741,5.0,2,f,2,Pequeno (1-2)
545449479466295829,Excelente apartamento em Copacabana - novo,Copacabana,Casa/Apto Inteiro,3,1.0,1.0,291.0,Baixo,-22.97967,-43.19001,4.93,70,t,3,Médio (3-4)
1386326551492102026,Cozy Room- Glória - RJ,Glória,Quarto Privado,2,0.0,1.0,148.0,Baixo,-22.91514,-43.17628,5.0,2,f,2,Pequeno (1-2)
1407334586847417886,boho 602,Ipanema,Casa/Apto Inteiro,4,2.0,3.0,791.0,Médio,-22.983559802776128,-43.19812664613825,5.0,2,,2,Médio (3-4)
993459438945512191,Apartamento Barra Vista para o Mar Barra da Tijuca,Barra da Tijuca,Casa/Apto Inteiro,10,4.0,2.0,761.0,Médio,-23.005793643401148,-43.32154802978039,4.86,14,t,2,Grande (5+)
693381262665837963,Casa ampla com piscina com vista Pedra da Gávea,Gardênia Azul,Casa/Apto Inteiro,10,5.0,4.5,1524.0,Médio-Alto,-22.953684466824438,-43.352093079298,0.0,0,f,365,Grande (5+)
1350511442340096962,Flat Del Sol,Recreio dos Bandeirantes,Casa/Apto Inteiro,2,1.0,1.0,325.0,Médio-Baixo,-23.03092,-43.47657,4.8,15,,1,Pequeno (1-2)
4117444,No Coração de Copacabana posto 4 - Recém Reformado,Copacabana,Casa/Apto Inteiro,6,3.0,2.0,670.0,Médio,-22.96995,-43.18798,4.77,26,t,4,Grande (5+)
730997,Penthouse 5 Mins  Copacabana Beach! Side Sea View!,Copacabana,Casa/Apto Inteiro,10,5.0,4.5,1439.0,Médio-Alto,-22.9803,-43.19357,4.76,123,f,3,Grande (5+)
1399285629697503002,Suíte em flat com copa e garagem,Barra da Tijuca,Casa/Apto Inteiro,2,1.0,1.0,253.0,Baixo,-23.004625,-43.3411517,5.0,7,f,1,Pequeno (1-2)
1052061093927618728,Suíte privativa com ar condicionado na Lapa RJ,Centro,Quarto Privado,2,1.0,1.0,100.0,Muito Baixo,-22.9136814,-43.1862368,4.83,12,f,1,Pequeno (1-2)
40734028,Espaço Laranjeiras,Laranjeiras,Casa/Apto Inteiro,3,1.0,1.0,,,-22.93145,-43.1796,4.93,14,f,4,Médio (3-4)
48259535,"KitNet arejado,  mobiliado, WI-FI e área externa.",Pitangueiras,Casa/Apto Inteiro,3,1.0,1.0,142.0,Baixo,-22.81615,-43.17982,4.88,17,f,3,Médio (3-4)
18827018,Quarto inteiro no leblon,Centro,Quarto Privado,2,1.0,1.0,1649.0,Médio-Alto,-22.90786,-43.17403,0.0,0,f,20,Pequeno (1-2)
1395034226828733127,Studio em Ipanema,Ipanema,Casa/Apto Inteiro,3,1.0,1.0,222.0,Baixo,-22.9856734,-43.2111637,4.71,7,t,2,Médio (3-4)
789910904869940267,Chalé com dois quartos,Barra de Guaratiba,Casa/Apto Inteiro,4,1.0,1.0,300.0,Baixo,-23.0318188,-43.5638961,0.0,0,f,1,Médio (3-4)
1349564391340209513,Flat 1111 | Rio Centro e Parque Olímpico,Curicica,Casa/Apto Inteiro,2,1.0,1.0,158.0,Baixo,-22.9623331243016,-43.399346843361855,5.0,24,f,1,Pequeno (1-2)
1010888831906316403,Lapa Vida Clean,Centro,Casa/Apto Inteiro,3,1.0,1.0,187.0,Baixo,-22.912442790977423,-43.18657352648406,4.9,20,f,2,Médio (3-4)
1345264498711852720,Casa Praiana Leblon,Leblon,Casa/Apto Inteiro,2,1.0,2.0,1045.0,Médio,-22.98601770087556,-43.219454772770405,0.0,0,f,2,Pequeno (1-2)
1407494006432358285,Apartamento conjugado na Lapa,Centro,Casa/Apto Inteiro,4,1.0,1.0,143.0,Baixo,-22.91275,-43.18491,0.0,0,f,1,Médio (3-4)
40981749,Perto da praia e do metrô!,Copacabana,Casa/Apto Inteiro,4,2.0,2.0,704.0,Médio,-22.96728,-43.18665,0.0,0,f,5,Médio (3-4)
841218468867464439,Apartamento frente à praia de Copacabana,Copacabana,Casa/Apto Inteiro,2,1.0,1.0,415.0,Médio-Baixo,-22.96587,-43.18015,4.9,10,f,2,Pequeno (1-2)
53617970,Modern 2 suites apartment with terrace in Ipanema,Ipanema,Casa/Apto Inteiro,4,2.0,2.0,2850.0,Alto,-22.98444,-43.19726,0.0,0,f,4,Médio (3-4)
35517054,Melhor Custo Benefício da Barra da Tijuca,Barra da Tijuca,Casa/Apto Inteiro,6,3.0,4.0,700.0,Médio,-23.00739,-43.33375,4.84,19,f,30,Grande (5+)
976957610308454761,Rio centro / recreio,Camorim,Casa/Apto Inteiro,3,1.0,0.0,205.0,Baixo,-22.98052,-43.42267,4.93,60,t,1,Médio (3-4)
1057855646539416262,Quarto Luxuoso no hotel Nacional Em frente ao Mar,São Conrado,Quarto Privado,4,1.0,1.0,,,-22.99803589335146,-43.256820961833,0.0,0,f,1,Médio (3-4)
1346435742514325106,Loft Send,Centro,Casa/Apto Inteiro,2,1.0,1.0,193.0,Baixo,-22.90887,-43.17651,4.67,3,f,3,Pequeno (1-2)
1310444628359138162,apt c/varanda e vaga de garagem Copacabana,Copacabana,Casa/Apto Inteiro,6,2.0,1.0,,,-22.9737524,-43.1926395,5.0,1,f,4,Grande (5+)
1036271600503593921,Apartamento coração Copacabana,Copacabana,Casa/Apto Inteiro,3,2.0,1.0,450.0,Médio-Baixo,-22.97128,-43.18797,5.0,3,f,4,Médio (3-4)
1407957069094585778,Casa do Coixme; área externa para eventos.,Santa Teresa,Casa/Apto Inteiro,16,0.0,2.0,1343.0,Médio-Alto,-22.9411995,-43.206973,0.0,0,f,1,Grande (5+)
1227730581444118285,Espaçoso Praia de Copacabana com conforto,Copacabana,Casa/Apto Inteiro,6,1.0,1.0,324.0,Médio-Baixo,-22.96722,-43.18187,4.89,9,t,3,Grande (5+)
1353632774580742197,Flat Coração da Barra da Tijuca,Barra da Tijuca,Casa/Apto Inteiro,2,1.0,1.0,540.0,Médio-Baixo,-23.004625,-43.3411517,4.67,3,f,2,Pequeno (1-2)
31715725,Apartamento ao Lado do Metro - ZONA SUL,Catete,Quarto Privado,2,1.0,1.0,269.0,Baixo,-22.92441,-43.18177,4.43,7,f,3,Pequeno (1-2)
1066921908716058574,Ap. entre Copacabana e Ipanema,Copacabana,Casa/Apto Inteiro,4,1.0,1.0,,,-22.98243967827402,-43.19471250145403,5.0,2,t,5,Médio (3-4)
696537570246954349,Condomínio Full Estrelas,Jacarepaguá,Casa/Apto Inteiro,4,2.0,2.0,1800.0,Médio-Alto,-22.9681738,-43.3924984,0.0,0,f,5,Médio (3-4)
695507449170985978,Estúdio Estação República no Flamengo/RJ,Catete,Casa/Apto Inteiro,3,1.0,1.0,300.0,Baixo,-22.92571,-43.1773,5.0,9,f,5,Médio (3-4)
1421041320923049846,Departamento familiar,Copacabana,Casa/Apto Inteiro,4,1.0,1.0,256.0,Baixo,-22.97942,-43.19027,5.0,1,f,1,Médio (3-4)
828943455181958308,Apartamento Copacabana Tranquilo,Copacabana,Casa/Apto Inteiro,5,1.0,1.0,200.0,Baixo,-22.96656,-43.18467,4.75,20,,2,Grande (5+)
1420510387949930622,SUH Botafogo 07 Metro Compact,Botafogo,Casa/Apto Inteiro,2,1.0,1.0,188.0,Baixo,-22.9497455,-43.1824266,5.0,1,f,1,Pequeno (1-2)
1429838886060087394,Apartamento acolhedor Zona Sul 3 camas de solteiro,Catete,Casa/Apto Inteiro,3,1.0,1.0,150.0,Baixo,-22.92459,-43.17691,5.0,1,f,3,Médio (3-4)
1364158465013458910,Studio Copacabana,Copacabana,Casa/Apto Inteiro,2,1.0,1.0,155.0,Baixo,-22.98338,-43.1930676,4.86,7,,1,Pequeno (1-2)
41801093,"Apto aconchegante em Copacabana,  a 2 min da praia",Copacabana,Casa/Apto Inteiro,2,1.0,1.5,603.0,Médio,-22.964764,-43.176495,4.89,9,f,3,Pequeno (1-2)
1562955,Very NEW apt with NEW furniture,Copacabana,Casa/Apto Inteiro,6,1.0,1.0,181.0,Baixo,-22.96851,-43.18401,4.38,245,f,5,Grande (5+)
16531389,O mais aconchegante de Ipanema,Ipanema,Casa/Apto Inteiro,4,1.0,2.0,2125.0,Alto,-22.98389,-43.19596,5.0,2,f,100,Médio (3-4)
51534616,Mar de Copa II - Vista do mar para até 5 pessoas,Copacabana,Casa/Apto Inteiro,5,1.0,1.0,411.0,Médio-Baixo,-22.982458114624023,-43.19026565551758,4.72,221,t,2,Grande (5+)
22752214,Aquarela Carioca “próximo Zona Sul e Centro”,Rio Comprido,Casa/Apto Inteiro,2,1.0,2.0,153.0,Baixo,-22.92357,-43.21393,5.0,22,f,10,Pequeno (1-2)
1181781007465825726,Maravilhosa cobertura com Jacuzzi na Barra Tijuca,Barra da Tijuca,Casa/Apto Inteiro,8,3.0,4.0,1150.0,Médio-Alto,-23.00919,-43.34469,4.5,4,f,2,Grande (5+)
1378438574181962191,Quarto Compartilhado Misto 5 A,Praça da Bandeira,Quarto Compartilhado,10,1.0,2.0,120.0,Muito Baixo,-22.91416,-43.2117,0.0,0,f,1,Grande (5+)
1314591195028336609,Refuge in Copacabana 5min from the beach | Nsc1102,Copacabana,Casa/Apto Inteiro,4,2.0,1.5,309.0,Baixo,-22.972132724328706,-43.18824897868596,4.55,11,f,1,Médio (3-4)
1362317547179516713,Lindo Flat 1 Quarto Copacabana,Copacabana,Casa/Apto Inteiro,4,1.0,1.0,,,-22.97604800727324,-43.19223365095217,5.0,1,f,2,Médio (3-4)
1304481977672849740,Suíte Stay | Riocentro | Barra Olímpica c/Ar Split,Camorim,Casa/Apto Inteiro,2,1.0,1.0,141.0,Muito Baixo,-22.9798,-43.42196,4.9,10,f,1,Pequeno (1-2)
814338761421879241,Constante 68,Copacabana,Casa/Apto Inteiro,3,1.0,1.0,199.0,Baixo,-22.9735513,-43.1893696,4.88,34,t,4,Médio (3-4)
873251876948935795,NEW Studio in Copanema,Copacabana,Casa/Apto Inteiro,3,1.0,1.0,206.0,Baixo,-22.983358432709352,-43.19291083862305,4.93,72,t,3,Médio (3-4)
54002010,Charmoso apartamento no coração do Rio,Centro,Casa/Apto Inteiro,2,1.0,1.0,157.0,Baixo,-22.91382,-43.18728,4.67,3,f,4,Pequeno (1-2)
1331329459629512234,Chateau Gávea Pequena,Alto da Boa Vista,Casa/Apto Inteiro,12,6.0,8.0,6108.0,Alto,-22.9760631,-43.2787106,5.0,1,f,2,Grande (5+)
1084031335012632158,2 Quartos (1 suíte) | AC | Gar. | 2 quadras do Mar,Copacabana,Casa/Apto Inteiro,4,2.0,3.0,485.0,Médio-Baixo,-22.98651,-43.19162,5.0,22,t,2,Médio (3-4)
758096240753469779,Lovely apartment a few blocks from Arpoador Beach,Copacabana,Casa/Apto Inteiro,2,1.0,1.0,159.0,Baixo,-22.983145512137305,-43.19420371349183,4.7,27,t,2,Pequeno (1-2)
39085218,"Recanto de sofisticação, conforto e tranquilidade",Barra da Tijuca,Casa/Apto Inteiro,4,2.0,1.0,342.0,Médio-Baixo,-23.00624,-43.43059,4.99,81,t,2,Médio (3-4)
4799127,Amazing and silent loft in Copacaba,Copacabana,Casa/Apto Inteiro,3,0.0,1.0,503.0,Médio-Baixo,-22.97368,-43.1947,4.97,29,t,3,Médio (3-4)
1312177694568999717,Great apart  frente praia,Barra da Tijuca,Casa/Apto Inteiro,3,1.0,1.0,578.0,Médio,-23.01157789780904,-43.3258538825736,5.0,1,,30,Médio (3-4)
1227746793732790715,Apartamento Novo!,Jacarepaguá,Casa/Apto Inteiro,3,1.0,1.0,,,-22.9626949,-43.3908171,5.0,1,f,2,Médio (3-4)
578720220849412214,"Luxuoso apartamento vista mar, 3 quartos Barrabela",Barra da Tijuca,Casa/Apto Inteiro,6,3.0,2.0,1786.0,Médio-Alto,-23.00897,-43.34389,4.97,39,t,3,Grande (5+)
1099968689149957827,Copacabana BEACH - 3 quartos,Copacabana,Casa/Apto Inteiro,6,3.0,2.0,352.0,Médio-Baixo,-22.967762331060115,-43.183140887717485,4.92,38,t,4,Grande (5+)
815309882749734621,Apartment in Leme / Copacabana with beach view.,Leme,Casa/Apto Inteiro,5,2.0,1.5,609.0,Médio,-22.963069613987827,-43.16699796431956,5.0,9,f,3,Grande (5+)
1415417328985426465,Apto em Copacabana,Copacabana,Casa/Apto Inteiro,4,1.0,1.0,225.0,Baixo,-22.97065196669812,-43.18817317485809,0.0,0,f,3,Médio (3-4)
8981357,"Modern, Stylish Apt Ipanema Centre",Ipanema,Casa/Apto Inteiro,2,1.0,1.0,255.0,Baixo,-22.98441,-43.1969,4.72,197,,4,Pequeno (1-2)
30344532,Cool&Cozy (single room) - Rio porque estou no Rio,Copacabana,Quarto Privado,1,1.0,1.0,,,-22.96591,-43.18852,4.93,59,f,4,Pequeno (1-2)
1080207770619058796,Apartamento no coração do RJ.,Madureira,Casa/Apto Inteiro,3,1.0,1.0,180.0,Baixo,-22.8798912697074,-43.34035266190767,4.83,24,f,1,Médio (3-4)
1100226106375867902,Ap 204 no coração da Lapa,Santa Teresa,Casa/Apto Inteiro,4,1.0,1.0,133.0,Muito Baixo,-22.91571,-43.18565,4.92,26,f,2,Médio (3-4)
735709672448310951,Copa Clara | 3 minutos da Praia do Leme | Com A/C,Leme,Casa/Apto Inteiro,5,2.0,1.5,434.0,Médio-Baixo,-22.9639,-43.17357,5.0,71,t,4,Grande (5+)
843656025989649893,Incrível Apartamento no Arpoador,Ipanema,Casa/Apto Inteiro,5,2.0,2.0,717.0,Médio,-22.986605097077348,-43.19249772633327,4.72,78,t,2,Grande (5+)
1223270282872174758,Apartamento em Botafogo espaçoso e perto de tudo,Botafogo,Casa/Apto Inteiro,4,1.0,1.0,261.0,Baixo,-22.95539,-43.18878,5.0,16,f,2,Médio (3-4)
1418798623093439125,Estúdio no Rio de Janeiro,Laranjeiras,Casa/Apto Inteiro,2,1.0,1.0,208.0,Baixo,-22.937612809512288,-43.19408006966114,0.0,0,f,2,Pequeno (1-2)
37769679,Lindo apartamento com 2 quartos e deck externo!,Copacabana,Casa/Apto Inteiro,4,2.0,1.5,350.0,Médio-Baixo,-22.97901,-43.19191,4.88,40,f,5,Médio (3-4)
1153907447239236485,Quarto privado em apartamento,Centro,Quarto Privado,2,1.0,1.0,299.0,Baixo,-22.90577510335362,-43.194673294041245,5.0,3,f,1,Pequeno (1-2)
41206840,Casa alto padrão  na Tijuca,Tijuca,Casa/Apto Inteiro,10,3.0,2.5,576.0,Médio,-22.92545,-43.23967,0.0,0,f,3,Grande (5+)
1450213653760508861,Quarto para 1 - Hostel c/piscina,Ipanema,Quarto Privado,1,1.0,6.0,193.0,Baixo,-22.9831016,-43.2087408,0.0,0,t,1,Pequeno (1-2)
1439138730686219185,Frente o mar de Leme - 3 quartos,Leme,Casa/Apto Inteiro,6,3.0,2.5,1326.0,Médio-Alto,-22.96153,-43.16797,0.0,0,f,3,Grande (5+)
1045607857230861707,Santa Vista! Apartamento no Rio de Janeiro,Santa Teresa,Casa/Apto Inteiro,5,2.0,2.0,400.0,Médio-Baixo,-22.9180322,-43.1814948,5.0,5,f,3,Grande (5+)
32409253,Apartamento Inteligente Praia de Copacabana,Copacabana,Casa/Apto Inteiro,2,1.0,1.0,144.0,Baixo,-22.96731185913086,-43.18115615844727,4.66,109,t,3,Pequeno (1-2)
14294990,Excelente localização !!!,Catete,Casa/Apto Inteiro,3,2.0,1.0,600.0,Médio,-22.929,-43.17903,5.0,12,f,2,Médio (3-4)
885336518052496205,Super Flat na Praia da Barra ao lado WindsorHotel,Barra da Tijuca,Casa/Apto Inteiro,3,1.0,1.0,366.0,Médio-Baixo,-23.01086,-43.32232,5.0,29,t,3,Médio (3-4)
785592009568119635,Lagoa Solar,Humaitá,Casa/Apto Inteiro,2,2.0,1.0,199.0,Baixo,-22.95732,-43.20322,4.86,7,f,3,Pequeno (1-2)
20762065,"Apt de frente, 500 mt praia, longe de comunidade",Recreio dos Bandeirantes,Casa/Apto Inteiro,4,2.0,2.0,227.0,Baixo,-23.01936,-43.45972,4.94,90,t,3,Médio (3-4)
739895549662462818,Loft com localização espetacular em Copacabana!,Copacabana,Casa/Apto Inteiro,3,1.0,1.0,450.0,Médio-Baixo,-22.984041,-43.1914755,4.82,33,f,1,Médio (3-4)
13882768,Room per season with beautiful view to the garden,Copacabana,Quarto Privado,2,1.0,2.0,70.0,Muito Baixo,-22.96435,-43.17783,4.59,169,f,3,Pequeno (1-2)
1406792575660389160,Mar e Sol Copacabana / 1 Br Apartamento,Copacabana,Casa/Apto Inteiro,3,1.0,1.0,208.0,Baixo,-22.98358977875996,-43.19262932986021,5.0,2,t,4,Médio (3-4)
729565008445102126,"Leblon clássico, entre o mar e a lagoa",Leblon,Casa/Apto Inteiro,5,2.0,1.0,394.0,Médio-Baixo,-22.9835236,-43.2164696,4.72,71,f,2,Grande (5+)
16859349,Quarto casal 2p/Double room 2p,Flamengo,Quarto Privado,2,1.0,1.5,243.0,Baixo,-22.93511,-43.1754,5.0,23,f,1,Pequeno (1-2)
1441781530734187973,TIR27 #402.1 : Balsa Praia - Lavanderia - Academia,Barra da Tijuca,Casa/Apto Inteiro,2,1.0,1.0,248.0,Baixo,-23.0039,-43.34003,0.0,0,t,2,Pequeno (1-2)
761747225112763402,Apart Morada Bossa Nova Leblon,Leblon,Casa/Apto Inteiro,4,1.0,0.0,268.0,Baixo,-22.98564,-43.2238,4.5,12,f,1,Médio (3-4)
1260206331529128051,Aconchego  Próx.Recreio e eventos Riocentro,Vargem Pequena,Casa/Apto Inteiro,3,1.0,1.0,118.0,Muito Baixo,-22.9828743,-43.464085,5.0,11,t,2,Médio (3-4)
983270205603766586,Apart.  Copacabana Beira mar!,Copacabana,Casa/Apto Inteiro,6,2.0,1.5,332.0,Médio-Baixo,-22.965550866432334,-43.17705138052826,4.88,26,t,2,Grande (5+)
960367023653965289,Ótima localização e preço baixo.,Centro,Casa/Apto Inteiro,3,0.0,1.0,88.0,Muito Baixo,-22.912565274305276,-43.19062203168869,4.66,79,f,1,Médio (3-4)
1144786963326557448,Maior e melhor Studio no Leblon.,Leblon,Casa/Apto Inteiro,2,1.0,1.0,,,-22.985623231872005,-43.2280308008194,5.0,1,t,3,Pequeno (1-2)
1237093927657580610,3 minutes from Leme beach | Gs501,Leme,Casa/Apto Inteiro,2,1.0,1.5,279.0,Baixo,-22.96225072577289,-43.17135115422181,4.62,13,f,1,Pequeno (1-2)
1310115587099236647,Suíte-cobertura c vista montanha no Rio de Janeiro,Laranjeiras,Quarto Privado,2,1.0,1.0,,,-22.9316061059997,-43.1889107776409,0.0,0,f,2,Pequeno (1-2)
12270978,3 rooms flat in Botafogo Beach,Botafogo,Casa/Apto Inteiro,6,3.0,3.5,1200.0,Médio-Alto,-22.95106,-43.17837,0.0,0,f,30,Grande (5+)
12005351,apartamento double casal luxo,Botafogo,Casa/Apto Inteiro,2,1.0,1.0,,,-22.95787,-43.18025,4.82,33,f,3,Pequeno (1-2)
593623318417143867,Beautiful place 1,Bancários,Casa/Apto Inteiro,6,2.0,2.0,142.0,Baixo,-22.7983198,-43.1731488,5.0,11,,2,Grande (5+)
1136928182655526476,Apartamento em Copacabana,Copacabana,Casa/Apto Inteiro,4,1.0,1.0,472.0,Médio-Baixo,-22.974671975557182,-43.18962324410677,0.0,0,f,3,Médio (3-4)
1383571829961886769,A 3 Minutos da Praia com Muito Estilo DF219-707,Copacabana,Casa/Apto Inteiro,4,1.0,1.0,243.0,Baixo,-22.9755124,-43.188449,4.63,8,f,1,Médio (3-4)
948164442549000644,Apartment next to Copacabana's Beach!,Copacabana,Casa/Apto Inteiro,4,2.0,1.5,1200.0,Médio-Alto,-22.9663,-43.18671,5.0,2,f,5,Médio (3-4)
10436065,Charming Triplex _ Christmas 2019 and NewYear 2020,Jardim Botânico,Casa/Apto Inteiro,6,3.0,3.5,1600.0,Médio-Alto,-22.96496,-43.22576,5.0,1,f,7,Grande (5+)
923641085284705457,Apartamento inteiro,Flamengo,Casa/Apto Inteiro,2,1.0,1.0,1080.0,Médio,-22.93243608096035,-43.17495428075642,5.0,2,f,1,Pequeno (1-2)
26745655,Apartamento Espaçoso em Copacabana,Copacabana,Casa/Apto Inteiro,8,2.0,3.0,301.0,Baixo,-22.97825,-43.1907,4.75,114,f,2,Grande (5+)
730951853302516668,2 quartos a na quadra da praia do Flamengo,Flamengo,Casa/Apto Inteiro,5,2.0,1.0,823.0,Médio,-22.936625,-43.17545,0.0,0,f,4,Grande (5+)
1430518661825242660,Aconchegante quarto em Botafogo,Botafogo,Quarto Privado,1,1.0,1.0,116.0,Muito Baixo,-22.9495412626902,-43.18285624269032,5.0,1,f,2,Pequeno (1-2)
8716271,Exclusiva cobertura na melhor rua do Leblon,Leblon,Casa/Apto Inteiro,5,2.0,2.0,523.0,Médio-Baixo,-22.98169,-43.22397,4.86,49,t,5,Grande (5+)
41563890,Apartamento na Praia,Copacabana,Casa/Apto Inteiro,4,2.0,1.0,,,-22.9729,-43.18447,5.0,5,t,3,Médio (3-4)
11633008,Beautiful LOFT in a Colonial House,Santa Teresa,Casa/Apto Inteiro,7,3.0,3.0,778.0,Médio,-22.92331,-43.19022,4.86,36,t,3,Grande (5+)
50422304,Excelente casa condomínio MARAMAR,Recreio dos Bandeirantes,Casa/Apto Inteiro,10,4.0,4.5,870.0,Médio,-23.02475,-43.49902,4.51,84,f,3,Grande (5+)
3123252,Aconchegante studio bem localizado em Copacabana,Copacabana,Casa/Apto Inteiro,2,0.0,1.0,412.0,Médio-Baixo,-22.96928,-43.1825,4.71,17,f,3,Pequeno (1-2)
1145066231615830859,Charming room in Leblon,Leblon,Quarto Privado,2,1.0,1.0,325.0,Médio-Baixo,-22.98305241722265,-43.21602523326874,5.0,32,t,1,Pequeno (1-2)
14028792,Casa para até 16 pessoas próximo da Barra,Freguesia (Jacarepaguá),Casa/Apto Inteiro,16,3.0,1.0,2000.0,Alto,-22.9325,-43.327,0.0,0,f,15,Grande (5+)
1203827985426351391,Casa com piscina. E muito verde.  Guaratiba-RJ,Guaratiba,Quarto Privado,5,1.0,2.0,264.0,Baixo,-22.962488737060266,-43.59007036894074,0.0,0,f,2,Grande (5+)
54296586,Bhakti Ashram Copacabana,Copacabana,Quarto Privado,3,1.0,2.0,180.0,Baixo,-22.96854,-43.18368,4.96,126,t,1,Médio (3-4)
42293621,Excelente apartamento no Recreio dos Bandeirantes,Recreio dos Bandeirantes,Casa/Apto Inteiro,6,2.0,1.0,1557.0,Médio-Alto,-23.0176,-43.46372,5.0,1,f,2,Grande (5+)
1053716797020259779,Loft com Vistão Mar e Pé na Areia: Barra da Tijuca,Barra da Tijuca,Casa/Apto Inteiro,3,1.0,1.0,351.0,Médio-Baixo,-23.01043591404373,-43.35741246190186,4.89,87,t,2,Médio (3-4)
1110800557124350714,Tc1207 Vista Mar 3 pessoas,Copacabana,Casa/Apto Inteiro,3,1.0,1.0,325.0,Médio-Baixo,-22.977772650610905,-43.189384363229664,4.56,9,f,1,Médio (3-4)
54047787,Suite-B em estilo Apart Hotel - Rio Stay Residence,Camorim,Casa/Apto Inteiro,2,1.0,1.0,,,-22.97507,-43.41561,3.67,3,f,5,Pequeno (1-2)
13434536,Lovely Studio - Lapa,Centro,Casa/Apto Inteiro,2,1.0,1.0,150.0,Baixo,-22.91779,-43.18889,4.82,218,f,2,Pequeno (1-2)
2766871,2 QUARTOS APTO ACONCHEGANTE,Camorim,Casa/Apto Inteiro,4,2.0,2.0,455.0,Médio-Baixo,-22.97966,-43.41407,4.86,7,f,3,Médio (3-4)
1321116064333598082,Lindo e aconchegante apto Copa!,Copacabana,Casa/Apto Inteiro,4,2.0,1.0,342.0,Médio-Baixo,-22.96724,-43.18625,0.0,0,f,3,Médio (3-4)
53047653,"Copacabana - praia, metrô e lagoa!!!",Copacabana,Casa/Apto Inteiro,4,1.0,1.0,214.0,Baixo,-22.97587,-43.19186,4.93,83,f,3,Médio (3-4)
14519775,2 rooms / 300m from Ipanema beach,Ipanema,Casa/Apto Inteiro,4,3.0,1.0,,,-22.98653,-43.19406,5.0,3,f,5,Médio (3-4)
1400969912813989486,Apartamento Flat em Copacabana,Copacabana,Casa/Apto Inteiro,6,2.0,2.0,352.0,Médio-Baixo,-22.9769615,-43.191826,5.0,2,f,3,Grande (5+)
1284897694014851279,Studio | Urca | Pão de Açúcar | AC,Urca,Casa/Apto Inteiro,2,0.0,1.0,223.0,Baixo,-22.94693,-43.16244,5.0,18,t,3,Pequeno (1-2)
1367037494462955971,"Lapa, junto ao metrô c vista mar",Centro,Casa/Apto Inteiro,4,1.0,1.0,191.0,Baixo,-22.914700896474024,-43.17750221516375,0.0,0,f,3,Médio (3-4)
1410324343800733561,Inhaúma metrô zona norte,Inhaúma,Quarto Privado,2,1.0,1.0,143.0,Baixo,-22.870768030296848,-43.28179776450487,5.0,1,f,1,Pequeno (1-2)
1328959445517099642,Aparthotel in Ipanema,Ipanema,Casa/Apto Inteiro,2,1.0,1.0,943.0,Médio,-22.98039,-43.20296,0.0,0,f,1,Pequeno (1-2)
21611490,Suíte Bless,Vargem Grande,Quarto Privado,2,1.0,1.0,171.0,Baixo,-23.02093,-43.49481,4.43,7,f,1,Pequeno (1-2)
1156595872054628130,Apartamento alto luxo Praia de Copacabana,Copacabana,Casa/Apto Inteiro,6,2.0,3.0,666.0,Médio,-22.96643,-43.17745,4.97,32,t,2,Grande (5+)
53815828,Quarto 4 em Copacabana,Copacabana,Quarto Privado,2,1.0,1.0,225.0,Baixo,-22.98588,-43.18988,4.68,34,t,3,Pequeno (1-2)
1409628861848605018,Lanai - Apart. Lateral MT,Barra da Tijuca,Casa/Apto Inteiro,4,2.0,2.0,1044.0,Médio,-23.0139923,-43.3109603,0.0,0,f,2,Médio (3-4)
1400790980964648833,Barra Bella 1 quarto - Barra da Tijuca,Barra da Tijuca,Casa/Apto Inteiro,4,1.0,1.0,685.0,Médio,-23.0103,-43.34564,0.0,0,f,1,Médio (3-4)
40760545,Studio Copacabana w/ Laundry - 500m Beach & Metro,Copacabana,Casa/Apto Inteiro,4,1.0,1.0,158.0,Baixo,-22.97272,-43.19077,4.75,191,f,1,Médio (3-4)
1284024505393988295,Apartamento em Copacabana - A 10 minutos da praia,Copacabana,Casa/Apto Inteiro,5,2.0,1.0,543.0,Médio-Baixo,-22.96596,-43.19256,4.6,5,f,1,Grande (5+)
1386394765726978799,Barra da Tijuca: Your Private Beachfront Resort!,Barra da Tijuca,Casa/Apto Inteiro,4,2.0,3.0,3400.0,Alto,-23.01159,-43.38472,0.0,0,f,3,Médio (3-4)
797752952841120408,Quarto Super Aconchegante no coração de Copacabana,Copacabana,Quarto Privado,2,1.0,2.0,103.0,Muito Baixo,-22.9643734,-43.1902912,4.95,61,t,2,Pequeno (1-2)
1109711093144490684,Suite no Hotel Nacional,São Conrado,Quarto Privado,3,1.0,1.0,,,-22.998088953870244,-43.25704392045736,0.0,0,f,1,Médio (3-4)
1378369568132599499,Apartamento a 50 metros da praia,Copacabana,Casa/Apto Inteiro,6,2.0,1.5,470.0,Médio-Baixo,-22.97632362685171,-43.18817366568832,5.0,3,f,2,Grande (5+)
628048042263543604,"Loft tranquilo, com quintal e estacionamento",Anil,Casa/Apto Inteiro,3,1.0,1.0,187.0,Baixo,-22.9559,-43.33847,5.0,1,f,3,Médio (3-4)
1255510071668927915,Cobertura 800mts da praia do Recreio!,Recreio dos Bandeirantes,Casa/Apto Inteiro,3,1.0,2.0,166.0,Baixo,-23.01410363902989,-43.44864651560784,4.65,31,f,2,Médio (3-4)
14168916,COPACABANA APARTAMENTO,Copacabana,Casa/Apto Inteiro,4,1.0,1.0,242.0,Baixo,-22.97919694578377,-43.18907365772994,4.62,205,f,2,Médio (3-4)
1375489669832110185,Quarto em Copacabana,Copacabana,Quarto Privado,2,1.0,2.0,367.0,Médio-Baixo,-22.96262572851549,-43.17788181345828,0.0,0,f,1,Pequeno (1-2)
1365195615900083786,Excelente Apartamento em Copacabana,Copacabana,Casa/Apto Inteiro,3,1.0,1.0,194.0,Baixo,-22.98002,-43.19057,3.67,3,,2,Médio (3-4)
791917794523366052,hostel Tavares Bastos 4,Catete,Quarto Privado,2,1.0,1.0,90.0,Muito Baixo,-22.92703,-43.18321,0.0,0,f,4,Pequeno (1-2)
1410414664978321467,ap mobiliado em frente ao metrô,Copacabana,Casa/Apto Inteiro,3,1.0,1.0,258.0,Baixo,-22.98267,-43.19621,0.0,0,f,1,Médio (3-4)
1424662165383771814,Quarto Suite no Río de Janeiro,Itanhangá,Quarto Privado,2,1.0,1.5,153.0,Baixo,-22.99868974387629,-43.31227560457153,0.0,0,f,1,Pequeno (1-2)
1055889313840097999,Rock’n Rio,Jacarepaguá,Casa/Apto Inteiro,6,2.0,1.0,540.0,Médio-Baixo,-22.9631311,-43.4019402,0.0,0,f,3,Grande (5+)
786447158030564991,Apartamento em copa/Ipanema ( próximo à praia),Copacabana,Casa/Apto Inteiro,2,1.0,1.0,402.0,Médio-Baixo,-22.982497168529143,-43.19362731928573,4.0,4,f,3,Pequeno (1-2)
1051829560069944514,"Right on the sand in Copacabana, 3 bedrooms, cozy.",Copacabana,Casa/Apto Inteiro,6,3.0,2.0,634.0,Médio,-22.9770751,-43.1893428,5.0,43,t,5,Grande (5+)
872604618557823172,Quarto aconchegante e muito bem localizado!,Copacabana,Quarto Privado,2,2.0,2.0,110.0,Muito Baixo,-22.96614,-43.17894,0.0,0,f,2,Pequeno (1-2)
957123382293216700,Apartamento Sulacap 25 minutos da Barra da Tijuca,Vila Militar,Casa/Apto Inteiro,2,1.0,1.0,144.0,Baixo,-22.8839144,-43.4062466,0.0,0,f,2,Pequeno (1-2)
1283964113963000564,Apê Siqueira - Copacabana - Rio,Copacabana,Casa/Apto Inteiro,4,1.0,1.0,234.0,Baixo,-22.9655584,-43.18826350000001,4.91,22,t,1,Médio (3-4)
1329012506829189412,Explorer Bar - Classic Room,Santa Teresa,Quarto Privado,4,1.0,1.0,116.0,Muito Baixo,-22.92034,-43.18381,4.87,23,,1,Médio (3-4)
26782057,COPACABANA QUADRA DA PRAIA POSTO 5.,Copacabana,Casa/Apto Inteiro,2,1.0,1.0,249.0,Baixo,-22.98118,-43.19103,4.81,16,t,3,Pequeno (1-2)
1245152945565798109,Apto moderno perto da praia,Recreio dos Bandeirantes,Casa/Apto Inteiro,4,1.0,1.0,169.0,Baixo,-23.0286566,-43.4721503,5.0,2,f,2,Médio (3-4)
1336366662224382308,Refuge a few steps from Copacabana Beach | Q10,Copacabana,Casa/Apto Inteiro,2,1.0,1.0,264.0,Baixo,-22.96558,-43.17485,5.0,10,f,1,Pequeno (1-2)
959385989235950198,Quarto em Apartamento Riocentro,Jacarepaguá,Quarto Privado,1,1.0,1.0,150.0,Baixo,-22.971364360305177,-43.41153763218714,5.0,2,f,1,Pequeno (1-2)
1352973027273778665,Copacabana e praia e sol!,Leme,Casa/Apto Inteiro,4,1.0,1.0,270.0,Baixo,-22.9636294,-43.1722428,5.0,3,t,5,Médio (3-4)
1371121113821163736,Authentic Rio: Loft Between History and Nightlife,Santa Teresa,Casa/Apto Inteiro,3,1.0,1.0,137.0,Muito Baixo,-22.917946761693656,-43.17776349926881,4.71,17,f,1,Médio (3-4)
913849068022620134,Apartamento para alugar em Copacabana,Copacabana,Casa/Apto Inteiro,2,1.0,1.0,529.0,Médio-Baixo,-22.965379118484265,-43.181036822497845,5.0,2,f,3,Pequeno (1-2)
